preco;tamanho (m²);qtd_quartos;qtd_banheiros;qtd_vagas_garagem;bairro;endereco;bairro_tratada;bairro_mais_barato;bairro_norm;endereco_norm;latitude;longitude;CEP_opencage
1450000.0;135.0;4;2.0;2;Gutierrez;Rua Cônego Rocha Franco;Gutierrez;0;gutierrez;rua conego rocha franco;-19.9354512;-43.9540924;30441-025
1070000.0;115.0;2;2.0;2;Santo Antônio;Rua Antônio Dias;Santo Antônio;0;santo antonio;rua antonio dias;-19.9445612;-43.9464563;30350-180
280000.0;60.0;3;1.0;1;Estoril;Rua Vereador Nelson Cunha;Estoril;0;estoril;rua vereador nelson cunha;-19.9559297;-43.9679276;30494-225
1335000.0;78.0;3;2.0;2;São Pedro;Rua Viçosa;São Pedro;0;sao pedro;rua vicosa;-19.9454938;-43.9389531;30330-012
530000.0;75.0;3;2.0;2;Castelo;Avenida Miguel Perrela;Castelo;0;castelo;avenida miguel perrela;-19.8793334;-43.9973791;31330-310
529000.0;80.0;3;3.0;2;Sagrada Família;Rua Artur Alvim;Sagrada Família;0;sagrada familia;rua artur alvim;-19.9046059;-43.9151923;31035-060
260000.0;68.0;2;2.0;0;Centro;Avenida Olegário Maciel;Centro;0;centro;avenida olegario maciel;-19.9202732;-43.9445364;30180-110
470000.0;64.0;2;1.0;1;São João Batista;Rua Miguel Augusto da Silva;São João Batista;0;sao joao batista;rua miguel augusto da silva;-19.8250925;-43.9647609;31565-180
575000.0;82.0;3;2.0;2;Paquetá;Rua Nilton Baldo;Paquetá;0;paqueta;rua nilton baldo;-19.8712456;-43.9942466;31340-000
525000.0;58.0;2;2.0;2;Buritis;Rua Maria Heilbuth Surette;Buritis;0;buritis;rua maria heilbuth surette;-19.9736697;-43.9734272;30575-740
490000.0;72.0;3;2.0;2;Concórdia;Rua Itaquera;Concórdia;0;concordia;rua itaquera;-19.9007223;-43.9371913;31140-003
434000.0;91.0;3;2.0;1;Colégio Batista;Rua Pitangui;Colégio Batista;0;colegio batista;rua pitangui;-19.9053865;-43.9340462;31110-050
490000.0;98.0;3;3.0;1;Cidade Nova;Avenida Cristiano Machado;Cidade Nova;0;cidade nova;avenida cristiano machado;-19.8908875;-43.9285665;31170-020
260000.0;53.0;2;1.0;1;Salgado Filho;Rua Machado Nunes;Salgado Filho;0;salgado filho;rua machado nunes;-19.9430634;-43.9817904;30550-000
630000.0;70.0;2;1.0;2;Sion;Rua Patagônia;Sion;0;sion;rua patagonia;-19.9591387;-43.9349669;30320-380
1060000.0;160.0;3;3.0;3;Santo Agostinho;Rua Araguari;Santo Agostinho;0;santo agostinho;rua araguari;-19.9304115;-43.9513723;30170-008
290000.0;69.0;2;1.0;1;Salgado Filho;Rua Machado Nunes;Salgado Filho;0;salgado filho;rua machado nunes;-19.9430634;-43.9817904;30550-000
420000.0;90.0;3;2.0;1;Nova Gameleira;Rua Dom Oscar Romero;Outros;0;nova gameleira;rua dom oscar romero;-19.937491;-43.9877726;30510-090
390000.0;58.0;3;2.0;1;Santa Cruz;Rua José Cleto;Santa Cruz;0;santa cruz;rua jose cleto;-19.8765417;-43.931516;31160-440
1441313.0;100.0;3;2.0;2;Sion;Rua Assunção;Sion;0;sion;rua assuncao;-19.9546848;-43.9362089;30315-250
470000.0;110.0;3;2.0;2;Serrano;Rua Mário Pinheiro de Souza;Serrano;0;serrano;rua mario pinheiro de souza;-19.8782999;-44.0155066;32113-060
990000.0;80.0;3;3.0;2;Liberdade;Rua Custódio de Melo;Liberdade;0;liberdade;rua custodio de melo;-19.8626525;-43.9515537;31270-300
700000.0;90.0;3;3.0;2;Palmares;Rua Professor Tabajara Pedroso;Palmares;0;palmares;rua professor tabajara pedroso;-19.8715741;-43.9341828;31155-290
580000.0;71.0;3;2.0;2;Paquetá;Rua Gustavo Ladeira;Paquetá;0;paqueta;rua gustavo ladeira;-19.8798567;-43.9917617;31330-572
430000.0;95.0;3;3.0;2;Dona Clara;Rua Doutor João Miranda;Dona Clara;0;dona clara;rua doutor joao miranda;-19.8612876;-43.9362088;31810-270
950000.0;79.0;3;2.0;2;Gutierrez;Rua Benjamim Jacob;Gutierrez;0;gutierrez;rua benjamim jacob;-19.940883;-43.9590024;30430-050
598000.0;83.0;3;2.0;2;Buritis;Avenida Deputado Cristóvam Chiaradia;Buritis;0;buritis;avenida deputado cristovam chiaradia;-19.92083;-43.93778;30160-033
720000.0;95.0;3;2.0;3;Buritis;Rua Tereza Mota Valadares;Buritis;0;buritis;rua tereza mota valadares;-19.9740666;-43.9720029;30575-180
870000.0;102.0;4;3.0;2;Buritis;Avenida Deputado Cristóvam Chiaradia;Buritis;0;buritis;avenida deputado cristovam chiaradia;-19.92083;-43.93778;30160-033
669000.0;75.0;3;2.0;2;Sagrada Família;Rua Conselheiro Lafaiete;Sagrada Família;0;sagrada familia;rua conselheiro lafaiete;-19.8988167;-43.9231518;31035-460
400000.0;66.0;3;2.0;1;Floresta;Rua Jacuí;Floresta;0;floresta;rua jacui;-19.9075074;-43.9322657;31015-380
791990.0;73.0;3;2.0;2;Estoril;Avenida Barão Homem de Melo;Estoril;0;estoril;avenida barao homem de melo;-19.9646166;-43.9566391;30494-310
540000.0;194.0;3;2.0;1;Carlos Prates;Rua Prados;Carlos Prates;0;carlos prates;rua prados;-19.9142361;-43.9601511;30710-350
220000.0;47.0;2;1.0;1;Solimões;Rua Pau-Ferro;Outros;0;solimoes;rua pau-ferro;-19.822566;-43.924341;31742-680
677000.0;90.0;3;3.0;2;Palmares;Rua Professor Tabajara Pedroso;Palmares;0;palmares;rua professor tabajara pedroso;-19.8715741;-43.9341828;31155-290
420000.0;85.0;3;2.0;2;Planalto;Rua Francisco Augusto Rocha;Planalto;0;planalto;rua francisco augusto rocha;-19.8251622;-43.9544154;31744-144
545000.0;70.0;3;1.0;1;Palmeiras;Rua Senhora do Porto;Palmeiras;0;palmeiras;rua senhora do porto;-19.9722576;-43.9834489;30575-730
435000.0;82.0;3;1.0;2;Santa Mônica;Rua Doutor Álvaro Camargos;Santa Mônica;0;santa monica;rua doutor alvaro camargos;-19.8271418;-43.9681457;31565-180
460000.0;134.0;3;2.0;1;Carlos Prates;Rua Prados;Carlos Prates;0;carlos prates;rua prados;-19.9142361;-43.9601511;30710-350
450000.0;85.0;3;2.0;1;Jardim América;Rua Conselheiro Joaquim Caetano;Jardim América;0;jardim america;rua conselheiro joaquim caetano;-19.9504321;-43.9716186;30460-090
355000.0;90.0;3;2.0;1;Alto Barroca;Rua Santa Cruz;Alto Barroca;0;alto barroca;rua santa cruz;-19.9342246;-43.9667749;30431-020
1100000.0;74.0;3;3.0;3;Santo Antônio;Rua Mangabeira;Santo Antônio;0;santo antonio;rua mangabeira;-19.9458676;-43.9465231;30350-180
1250000.0;115.0;3;2.0;3;Luxemburgo;Rua Fábio Couri;Luxemburgo;0;luxemburgo;rua fabio couri;-19.9481029;-43.9567503;30380-350
490000.0;45.0;2;1.0;0;Nova Suíssa;Rua Bogari;Nova Suíssa;0;nova suissa;rua bogari;-19.9310855;-43.9724711;30421-238
460000.0;70.0;2;2.0;1;Colégio Batista;Rua Pouso Alegre;Colégio Batista;0;colegio batista;rua pouso alegre;-19.9115353;-43.9378451;31110-015
1790000.0;140.0;4;4.0;2;Anchieta;Rua Engenheiro Amaro Lanari;Anchieta;0;anchieta;rua engenheiro amaro lanari;-19.9510092;-43.9295127;30310-530
280000.0;63.0;2;2.0;1;Jardim América;Rua Lindolfo de Azevedo;Jardim América;0;jardim america;rua lindolfo de azevedo;-19.9434681;-43.9740084;30421-351
1090000.0;74.0;3;2.0;2;Anchieta;Rua Dom Vital;Anchieta;0;anchieta;rua dom vital;-19.9467782;-43.9272771;30310-520
790000.0;104.0;3;3.0;2;Jaraguá;Rua Bacupã;Jaraguá;0;jaragua;rua bacupa;-19.857266;-43.9526586;31270-860
1284509.0;72.0;2;2.0;2;Sion;Rua Chicago;Sion;0;sion;rua chicago;-19.9532566;-43.9332269;30315-550
449000.0;60.0;2;2.0;1;Penha;Rua Cornélia;Outros;0;penha;rua cornelia;-19.8736878;-43.9123788;31080-020
420000.0;65.0;2;1.0;1;Graça;Rua Jataí;Graça;0;graca;rua jatai;-19.8960201;-43.9298425;31140-270
450000.0;120.0;3;2.0;2;Santo André;Rua Gurutuba;Outros;0;santo andre;rua gurutuba;-19.9041452;-43.9564083;31230-350
429000.0;55.0;2;1.0;1;Colégio Batista;Rua Itabira;Colégio Batista;0;colegio batista;rua itabira;-19.9054832;-43.9421879;31210-790
580000.0;67.0;2;2.0;2;Dona Clara;Rua Bento Mendes Castanheira;Dona Clara;0;dona clara;rua bento mendes castanheira;-19.8603897;-43.9392591;31260-140
746990.0;73.0;3;2.0;2;Estoril;Avenida Barão Homem de Melo;Estoril;0;estoril;avenida barao homem de melo;-19.9646166;-43.9566391;30494-310
770000.0;110.0;3;2.0;2;Castelo;Rua Castelo de Avis;Castelo;0;castelo;rua castelo de avis;-19.8788641;-43.9946342;31330-120
700000.0;70.0;3;2.0;0;Sion;Rua Colômbia;Sion;0;sion;rua colombia;-19.9542763;-43.9385749;30315-250
777990.0;73.0;3;2.0;2;Estoril;Avenida Barão Homem de Melo;Estoril;0;estoril;avenida barao homem de melo;-19.9646166;-43.9566391;30494-310
1285761.0;71.0;3;3.0;2;Sion;Rua Assunção;Sion;0;sion;rua assuncao;-19.9546848;-43.9362089;30315-250
446197.0;49.0;2;2.0;1;Estoril;Rua Paulo Piedade Campos;Estoril;0;estoril;rua paulo piedade campos;-19.965417;-43.9647127;30493-030
772990.0;73.0;3;2.0;2;Estoril;Avenida Barão Homem de Melo;Estoril;0;estoril;avenida barao homem de melo;-19.9646166;-43.9566391;30494-310
850000.0;89.0;2;3.0;3;Buritis;Rua Rubens Caporali Ribeiro;Buritis;0;buritis;rua rubens caporali ribeiro;-19.9813042;-43.9764901;30575-855
560000.0;97.0;3;2.0;1;Carmo;Rua Passa Tempo;Carmo;0;carmo;rua passa tempo;-19.9450811;-43.9338093;30310-370
472000.0;49.0;2;2.0;1;Estoril;Rua Paulo Piedade Campos;Estoril;0;estoril;rua paulo piedade campos;-19.965417;-43.9647127;30493-030
680000.0;70.0;3;1.0;2;Paquetá;Rua Gustavo Ladeira;Paquetá;0;paqueta;rua gustavo ladeira;-19.8798567;-43.9917617;31330-572
490000.0;115.0;3;2.0;1;Jardim América;Rua Lindolfo de Azevedo;Jardim América;0;jardim america;rua lindolfo de azevedo;-19.9434681;-43.9740084;30421-351
627760.0;75.0;3;2.0;2;Sagrada Família;Rua João Carlos;Sagrada Família;0;sagrada familia;rua joao carlos;-19.9030168;-43.9207034;31030-370
440000.0;90.0;3;3.0;1;Caiçara-Adelaide;Rua Aspásia;Caiçara-Adelaide;0;caicara-adelaide;rua aspasia;-19.9044704;-43.9780815;30720-530
390000.0;85.0;3;2.0;1;Planalto;Rua Barão de Jacuí;Planalto;0;planalto;rua barao de jacui;-19.8329647;-43.9434523;31742-036
670000.0;120.0;3;3.0;2;Copacabana;Rua Viena;Copacabana;0;copacabana;rua viena;-19.8364574;-43.9896077;31550-000
300000.0;58.0;2;1.0;1;Piratininga;Rua Altinópolis;Piratininga;0;piratininga;rua altinopolis;-19.8079321;-43.9905529;31680-120
420000.0;108.0;3;1.0;1;Santa Mônica;Rua Olavo Bilac;Santa Mônica;0;santa monica;rua olavo bilac;-19.8206322;-43.9725148;31520-400
450000.0;60.0;2;1.0;1;Planalto;Rua Francisco Augusto Rocha;Planalto;0;planalto;rua francisco augusto rocha;-19.8251622;-43.9544154;31744-144
1100000.0;85.0;2;3.0;2;Lourdes;Rua Curitiba;Lourdes;0;lourdes;rua curitiba;-19.9270602;-43.9435923;30170-011
380000.0;83.0;2;2.0;1;Rio Branco;Rua Dalva de Matos;Rio Branco;0;rio branco;rua dalva de matos;-19.8153559;-43.9878663;31573-506
590000.0;72.0;2;2.0;2;Castelo;Rua Elisa Felippeto Ricaldoni;Castelo;0;castelo;rua elisa felippeto ricaldoni;-19.8908864;-43.9983596;30840-300
870000.0;125.0;4;4.0;3;Ouro Preto;Rua Desembargador Paulo Mota;Ouro Preto;0;ouro preto;rua desembargador paulo mota;-19.8844311;-43.9827441;31320-262
302900.0;48.0;2;1.0;1;São Gabriel;Rua São Brás;São Gabriel;0;sao gabriel;rua sao bras;-19.92083;-43.93778;30160-033
714800.0;61.0;2;3.0;2;Grajaú;Rua Pilar;Grajaú;0;grajau;rua pilar;-19.937432;-43.9666198;30460-620
1090000.0;251.0;4;5.0;2;Liberdade;Rua Frei Manoel da Cruz;Liberdade;0;liberdade;rua frei manoel da cruz;-19.860816;-43.9540979;31270-180
590000.0;67.0;2;2.0;2;Ipiranga;Rua Doutor Furtado de Menezes;Ipiranga;0;ipiranga;rua doutor furtado de menezes;-19.8855493;-43.9335036;31160-210
1250000.0;117.0;3;3.0;2;Buritis;Rua Geraldo Lúcio Vasconcelos;Buritis;0;buritis;rua geraldo lucio vasconcelos;-19.9809148;-43.9751321;30575-855
615000.0;57.0;2;2.0;2;Nova Suíssa;Rua André Fernandes;Nova Suíssa;0;nova suissa;rua andre fernandes;-19.9322136;-43.9725414;30431-020
450000.0;56.0;2;2.0;1;Penha;Rua Cornélia;Outros;0;penha;rua cornelia;-19.8736878;-43.9123788;31080-020
240000.0;48.0;2;1.0;1;Candelária;Rua Farmacêutico Raul Machado;Candelária;0;candelaria;rua farmaceutico raul machado;-19.8111915;-43.9706009;31570-010
530000.0;360.0;3;2.0;1;Pindorama;Rua dos Apiacás;Outros;0;pindorama;rua dos apiacas;-19.9125485;-44.0194196;30865-060
453000.0;68.0;3;2.0;2;Rio Branco;Rua Doutor Niso;Rio Branco;0;rio branco;rua doutor niso;-19.8191804;-43.9834355;31525-410
670000.0;81.0;2;2.0;2;Itapoã;Rua Dona Queridinha;Itapoã;0;itapoa;rua dona queridinha;-19.8372468;-43.9624414;31710-100
1550000.0;87.0;3;2.0;3;Gutierrez;Rua Almirante Alexandrino;Gutierrez;0;gutierrez;rua almirante alexandrino;-19.9374477;-43.9573884;30441-028
560000.0;83.0;3;3.0;2;Ouro Preto;Rua Desembargador Paulo Mota;Ouro Preto;0;ouro preto;rua desembargador paulo mota;-19.8844311;-43.9827441;31320-262
750000.0;160.0;3;2.0;2;Santa Mônica;Rua Olavo Bilac;Santa Mônica;0;santa monica;rua olavo bilac;-19.8206322;-43.9725148;31520-400
490000.0;83.0;3;3.0;2;Paquetá;Rua Maria Cândida de Jesus;Paquetá;0;paqueta;rua maria candida de jesus;-19.8709021;-43.9932637;31340-000
1397568.0;124.0;3;3.0;4;Santo Antônio;Rua Renato Falci;Santo Antônio;0;santo antonio;rua renato falci;-19.92083;-43.93778;30160-033
1750000.0;190.0;4;2.0;2;Lourdes;Rua Antônio Aleixo;Lourdes;0;lourdes;rua antonio aleixo;-19.9328458;-43.9464671;30160-041
410000.0;65.0;3;2.0;1;Santa Mônica;Rua Lauro Araújo Silva;Santa Mônica;0;santa monica;rua lauro araujo silva;-19.8286054;-43.9732145;31565-180
625540.0;96.0;2;2.0;2;Alto Caiçaras;Rua Hélio Lazzarotti;Alto Caiçaras;0;alto caicaras;rua helio lazzarotti;-19.8980179;-43.9777164;30750-170
750000.0;105.0;3;2.0;2;Buritis;Avenida Engenheiro Carlos Goulart;Buritis;0;buritis;avenida engenheiro carlos goulart;-19.973241;-43.961095;30455-900
499000.0;55.0;2;2.0;2;Buritis;Rua Pascoal Demartini Filho;Buritis;0;buritis;rua pascoal demartini filho;-19.92083;-43.93778;30160-033
690415.0;70.0;3;2.0;2;Indaiá;Rua Boaventura;Indaiá;0;indaia;rua boaventura;-19.8636038;-43.9547231;31270-250
365000.0;58.0;2;2.0;1;Jardim Leblon;Rua Egito;Jardim Leblon;1;jardim leblon;rua egito;-19.8252475;-43.9936401;31580-050
550000.0;140.0;3;3.0;2;São João Batista;Rua José Vieira Brandão;São João Batista;0;sao joao batista;rua jose vieira brandao;-19.8191296;-43.9710897;31520-400
695000.0;95.0;3;2.0;1;Coração de Jesus;Praça Abílio Nunes de Figueiredo;Coração de Jesus;0;coracao de jesus;praca abilio nunes de figueiredo;-19.92083;-43.93778;30160-033
950000.0;100.0;3;2.0;2;Sion;Rua do Uruguai;Sion;0;sion;rua do uruguai;-19.9492712;-43.9338242;30315-570
1095000.0;116.0;4;2.0;2;Buritis;Rua Ernani Agricola;Buritis;0;buritis;rua ernani agricola;-19.92083;-43.93778;30160-033
1500000.0;128.0;4;1.0;2;Funcionários;Rua Ceará;Funcionários;0;funcionarios;rua ceara;-19.9303979;-43.9278912;30130-131
1569204.0;77.0;2;2.0;1;Funcionários;Avenida do Contorno;Funcionários;0;funcionarios;avenida do contorno;-19.9342953;-43.9249154;30112-020
650000.0;78.0;3;3.0;2;Liberdade;Rua Boaventura;Liberdade;0;liberdade;rua boaventura;-19.8636038;-43.9547231;31270-250
419000.0;60.0;2;2.0;1;Castelo;Rua Castelo de Sintra;Castelo;0;castelo;rua castelo de sintra;-19.8784936;-44.0040732;31330-200
420000.0;62.0;3;2.0;1;Monsenhor Messias;Rua Ramos de Azevedo;Outros;0;monsenhor messias;rua ramos de azevedo;-19.9114635;-43.9779815;30720-480
450000.0;69.0;3;1.0;1;Caiçaras;Rua Sargento Robson da Cruz;Caiçaras;0;caicaras;rua sargento robson da cruz;-19.8921264;-43.9658227;30775-240
1053000.0;62.0;2;2.0;2;Centro;Rua Santa Catarina;Centro;0;centro;rua santa catarina;-19.9236654;-43.9440039;38082-049
990000.0;120.0;3;2.0;3;Gutierrez;Rua Oscar Trompowsky;Gutierrez;0;gutierrez;rua oscar trompowsky;-19.9369049;-43.9614399;30430-180
700000.0;64.0;2;3.0;2;Santa Efigênia;Rua Juiz Costa Val;Santa Efigênia;0;santa efigenia;rua juiz costa val;-19.9284206;-43.9139036;30260-250
510000.0;56.0;2;1.0;1;Dom Cabral;Avenida Edgar da Mata Machado;Outros;0;dom cabral;avenida edgar da mata machado;-19.9201706;-43.9973468;30535-901
850000.0;78.0;3;2.0;2;Buritis;Avenida Deputado Cristóvam Chiaradia;Buritis;0;buritis;avenida deputado cristovam chiaradia;-19.92083;-43.93778;30160-033
375000.0;117.0;3;3.0;1;São Lucas;Rua Cabrália;São Lucas;0;sao lucas;rua cabralia;-19.933388;-43.9169306;30240-130
1100000.0;130.0;4;1.0;3;Buritis;Rua Ernani Agricola;Buritis;0;buritis;rua ernani agricola;-19.92083;-43.93778;30160-033
1295000.0;200.0;4;5.0;4;Liberdade;Rua Doutor Teles;Liberdade;0;liberdade;rua doutor teles;-19.8610634;-43.9539345;31270-180
900000.0;150.0;2;2.0;0;Carlos Prates;Avenida Dom Pedro II;Carlos Prates;0;carlos prates;avenida dom pedro ii;-19.909953;-43.9562861;30710-010
494500.0;75.0;3;2.0;2;Salgado Filho;Rua Campina Verde;Salgado Filho;0;salgado filho;rua campina verde;-19.943841;-43.9856188;30550-000
559900.0;53.0;2;2.0;1;Pampulha;Rua General Aranha;Pampulha;0;pampulha;rua general aranha;-19.8573026;-43.9544918;31270-310
320000.0;60.0;3;1.0;1;Jardim Leblon;Rua Humberto de Campos;Jardim Leblon;1;jardim leblon;rua humberto de campos;-19.8301044;-43.987464;31540-360
1800000.0;160.0;4;3.0;2;Santo Agostinho;Rua Gonçalves Dias;Santo Agostinho;0;santo agostinho;rua goncalves dias;-19.9282659;-43.9493284;30190-130
1100000.0;71.0;2;2.0;2;Sion;Rua La Plata;Sion;0;sion;rua la plata;-19.9542311;-43.9327588;30315-550
595000.0;80.0;3;2.0;2;Palmares;Rua Jorge Angel Livraga;Palmares;0;palmares;rua jorge angel livraga;-19.8715018;-43.9398491;31255-984
1300000.0;118.0;4;3.0;3;Buritis;Rua Tereza Mota Valadares;Buritis;0;buritis;rua tereza mota valadares;-19.9740666;-43.9720029;30575-180
612314.0;66.0;2;3.0;2;São Lucas;Rua Salutares;São Lucas;0;sao lucas;rua salutares;-19.9334131;-43.9184285;30240-130
460000.0;65.0;3;2.0;1;Caiçaras;Rua Elenir de Souza Gouvêa;Caiçaras;0;caicaras;rua elenir de souza gouvea;-19.92083;-43.93778;30160-033
420000.0;47.0;2;1.0;1;Palmeiras;Rua Senhora do Porto;Palmeiras;0;palmeiras;rua senhora do porto;-19.9722576;-43.9834489;30575-730
745000.0;80.0;3;2.0;2;União;Rua Silva Fortes;União;0;uniao;rua silva fortes;-19.8811789;-43.9272578;31160-370
850000.0;65.0;2;3.0;2;Santo Antônio;Rua Professor Arduino Bolivar;Santo Antônio;0;santo antonio;rua professor arduino bolivar;-19.9438549;-43.9459601;30350-180
639900.0;105.0;4;3.0;2;Palmares;Rua José Cleto;Palmares;0;palmares;rua jose cleto;-19.8765417;-43.931516;31160-440
1780000.0;148.0;4;4.0;3;Jaraguá;Rua Garumã;Jaraguá;0;jaragua;rua garuma;-19.8578028;-43.9530134;31270-180
550000.0;98.0;3;2.0;2;Santo Antônio;Rua Guilherme de Almeida;Santo Antônio;0;santo antonio;rua guilherme de almeida;-19.9485717;-43.9451686;30350-213
1750000.0;165.0;4;3.0;3;Lourdes;Rua Antônio Aleixo;Lourdes;0;lourdes;rua antonio aleixo;-19.9328458;-43.9464671;30160-041
560000.0;75.0;3;2.0;1;Sagrada Família;Rua Itajubá;Sagrada Família;0;sagrada familia;rua itajuba;-19.8945854;-43.9259692;31035-480
395000.0;76.0;3;1.0;2;Santa Amélia;Rua Gomes Freire;Santa Amélia;0;santa amelia;rua gomes freire;-19.8433164;-43.9828159;31555-100
900000.0;105.0;3;3.0;2;Buritis;Avenida Protásio de Oliveira Penna;Buritis;0;buritis;avenida protasio de oliveira penna;-19.9781467;-43.967773;30575-210
350000.0;72.0;3;1.0;1;Cachoeirinha;Rua Coqueiro;Cachoeirinha;0;cachoeirinha;rua coqueiro;-19.92083;-43.93778;30160-033
903088.0;102.0;3;2.0;2;Liberdade;Rua Boaventura;Liberdade;0;liberdade;rua boaventura;-19.8636038;-43.9547231;31270-250
750000.0;90.0;3;1.0;2;Colégio Batista;Rua Varginha;Colégio Batista;0;colegio batista;rua varginha;-19.9107763;-43.9363781;31110-015
705685.0;63.0;2;2.0;2;São Lucas;Rua Visconde de Taunay;São Lucas;0;sao lucas;rua visconde de taunay;-19.9291765;-43.9207078;30150-270
399000.0;54.0;2;1.0;1;Castelo;Rua Castelo de Lisboa;Castelo;0;castelo;rua castelo de lisboa;-19.8785116;-44.0012656;31330-220
1631000.0;87.0;3;3.0;2;Sion;Rua República Argentina;Sion;0;sion;rua republica argentina;-19.9547019;-43.9334068;30315-550
1914770.0;107.0;3;3.0;2;Savassi;Rua Antônio de Albuquerque;Savassi;0;savassi;rua antonio de albuquerque;-19.9372065;-43.9394673;30112-011
4500000.0;274.0;4;5.0;5;Belvedere;Rua Engenheiro Walter Kurrle;Belvedere;0;belvedere;rua engenheiro walter kurrle;-19.9772295;-43.9440843;30320-900
490000.0;79.0;3;2.0;1;Paquetá;Rua Antenor Prata;Paquetá;0;paqueta;rua antenor prata;-19.8774713;-43.9916636;31330-120
545660.0;64.0;2;2.0;2;Alto Caiçaras;Rua Hélio Lazzarotti;Alto Caiçaras;0;alto caicaras;rua helio lazzarotti;-19.8980179;-43.9777164;30750-170
280000.0;50.0;3;1.0;1;Nova Cachoeirinha;Rua Henrique Diniz;Outros;0;nova cachoeirinha;rua henrique diniz;-19.8822553;-43.9557834;31255-050
420000.0;65.0;2;2.0;1;Buritis;Rua Tereza Mota Valadares;Buritis;0;buritis;rua tereza mota valadares;-19.9740666;-43.9720029;30575-180
750000.0;53.0;2;2.0;2;Coração de Jesus;Rua Professor Otto Cirne;Coração de Jesus;0;coracao de jesus;rua professor otto cirne;-19.92083;-43.93778;30160-033
630000.0;85.0;3;2.0;2;Santa Mônica;Rua do Carmelo;Santa Mônica;0;santa monica;rua do carmelo;-19.8307541;-43.9700416;31565-180
660000.0;110.0;4;2.0;2;Cidade Nova;Rua João Arantes;Cidade Nova;0;cidade nova;rua joao arantes;-19.8863334;-43.9224839;31170-210
630000.0;100.0;2;2.0;2;Araguaia;Rua Santa Alexandrina;Araguaia;0;araguaia;rua santa alexandrina;-19.9892902;-44.0023141;30620-090
520000.0;102.0;3;2.0;1;Colégio Batista;Rua Guanhães;Colégio Batista;0;colegio batista;rua guanhaes;-19.9070824;-43.9378181;31110-150
710000.0;58.0;2;2.0;2;Serra;Rua Chefe Pereira;Serra;0;serra;rua chefe pereira;-19.9358373;-43.9213682;30240-130
1200000.0;95.0;3;2.0;2;Santo Antônio;Rua Leopoldina;Santo Antônio;0;santo antonio;rua leopoldina;-19.9432658;-43.9411115;30330-240
565000.0;80.0;2;2.0;2;Palmeiras;Rua Doutor Djalma Carneiro;Palmeiras;0;palmeiras;rua doutor djalma carneiro;-19.9696663;-43.9790852;30575-730
930000.0;100.0;2;3.0;3;Pampulha;Rua dos Aeroviários;Pampulha;0;pampulha;rua dos aeroviarios;-19.857863;-43.9568898;31270-700
440000.0;70.0;3;3.0;1;Ouro Preto;Rua Flor-de-esparódia;Ouro Preto;0;ouro preto;rua flor-de-esparodia;-19.8701068;-43.9903028;31340-000
635000.0;64.0;2;2.0;1;Buritis;Rua Eli Seabra Filho;Buritis;0;buritis;rua eli seabra filho;-19.9756214;-43.9751097;30575-740
884337.0;72.0;3;2.0;2;Buritis;Rua Professora Bartira Mourão;Buritis;0;buritis;rua professora bartira mourao;-19.9691788;-43.9679532;30492-020
530000.0;80.0;3;2.0;1;Sagrada Família;Rua Conselheiro Lafaiete;Sagrada Família;0;sagrada familia;rua conselheiro lafaiete;-19.8988167;-43.9231518;31035-460
1990000.0;92.0;3;3.0;2;Lourdes;Rua Espírito Santo;Lourdes;0;lourdes;rua espirito santo;-19.9291906;-43.9400032;30160-907
1080000.0;88.0;3;2.0;2;Buritis;Avenida José de Oliveira Vaz;Buritis;0;buritis;avenida jose de oliveira vaz;-19.9820245;-43.9777458;30575-855
590000.0;65.0;2;1.0;1;Cidade Nova;Rua Elyseu Dias Coelho;Cidade Nova;0;cidade nova;rua elyseu dias coelho;-19.92083;-43.93778;30160-033
480000.0;82.0;3;2.0;2;Heliópolis;Rua Nair Pentagna Guimarães;Heliópolis;0;heliopolis;rua nair pentagna guimaraes;-19.842929;-43.9398802;31741-555
680000.0;100.0;4;2.0;3;Castelo;Rua Romualdo Lopes Cançado;Castelo;0;castelo;rua romualdo lopes cancado;-19.8881972;-43.996875;30840-470
560000.0;165.0;4;2.0;2;Cruzeiro;Rua Muzambinho;Cruzeiro;0;cruzeiro;rua muzambinho;-19.9461918;-43.9228446;30310-150
450000.0;55.0;2;1.0;1;Palmeiras;Rua Senhora do Porto;Palmeiras;0;palmeiras;rua senhora do porto;-19.9722576;-43.9834489;30575-730
749000.0;64.0;2;2.0;2;Santo Antônio;Rua Carlos Gomes;Santo Antônio;0;santo antonio;rua carlos gomes;-19.9431332;-43.945956;30350-180
1250000.0;112.0;4;3.0;3;Buritis;Rua Engenheiro Alberto Pontes;Buritis;0;buritis;rua engenheiro alberto pontes;-19.9688623;-43.9668794;30492-020
550000.0;61.0;2;1.0;1;Silveira;Avenida Cristiano Machado;Silveira;0;silveira;avenida cristiano machado;-19.8943921;-43.9278121;31140-540
541000.0;65.0;3;2.0;2;Palmeiras;Rua Senhora do Porto;Palmeiras;0;palmeiras;rua senhora do porto;-19.9722576;-43.9834489;30575-730
500000.0;103.0;4;3.0;1;Palmares;Rua Jorge Angel Livraga;Palmares;0;palmares;rua jorge angel livraga;-19.8715018;-43.9398491;31255-984
1150000.0;200.0;4;1.0;3;Gutierrez;Rua Porto Carrero;Gutierrez;0;gutierrez;rua porto carrero;-19.9448006;-43.9586357;30441-190
880000.0;89.0;3;2.0;2;Padre Eustáquio;Rua Dona Noemi;Padre Eustáquio;0;padre eustaquio;rua dona noemi;-19.92083;-43.93778;30160-033
1261498.0;73.0;3;3.0;2;Santa Efigênia;Rua Padre Marinho;Santa Efigênia;0;santa efigenia;rua padre marinho;-19.9257052;-43.9223823;30150-340
920000.0;85.0;3;2.0;2;Buritis;Avenida Aggeo Pio Sobrinho;Buritis;0;buritis;avenida aggeo pio sobrinho;-19.9746598;-43.9769735;30575-834
310000.0;80.0;2;1.0;1;Copacabana;Rua Olavo Bilac;Copacabana;0;copacabana;rua olavo bilac;-19.8327229;-43.987885;31540-360
400000.0;67.0;3;2.0;1;Santa Amélia;Praça Manoel Antônio de Carvalho;Santa Amélia;0;santa amelia;praca manoel antonio de carvalho;-19.8415964;-43.9824938;31555-100
533950.0;50.0;2;2.0;2;Padre Eustáquio;Rua Curupaiti;Padre Eustáquio;0;padre eustaquio;rua curupaiti;-19.9172558;-43.9859447;30730-420
1199000.0;123.0;4;2.0;3;Buritis;Rua Vitório Magnavacca;Buritis;0;buritis;rua vitorio magnavacca;-19.9680402;-43.9655163;30455-900
341990.0;47.0;2;1.0;1;Havaí;Rua Zilda Gama;Havaí;0;havai;rua zilda gama;-19.95697;-43.9762662;30555-120
330000.0;51.0;2;1.0;2;São João Batista;Rua Antônio Orlindo de Castro;São João Batista;0;sao joao batista;rua antonio orlindo de castro;-19.8234183;-43.96674;31520-400
550000.0;53.0;2;2.0;2;Buritis;Rua Sílvio Menicucci;Buritis;0;buritis;rua silvio menicucci;-19.9794682;-43.9782675;30575-843
1980000.0;170.0;4;5.0;3;Vila Paris;Rua Padre Francisco Arantes;Vila Paris;0;vila paris;rua padre francisco arantes;-19.9508034;-43.9492177;30380-728
1249000.0;84.0;3;2.0;2;Cruzeiro;Rua Pium-I;Cruzeiro;0;cruzeiro;rua pium-i;-19.9426434;-43.9299187;30310-560
320000.0;113.0;3;2.0;0;Centro;Rua dos Guaranis;Centro;0;centro;rua dos guaranis;-19.9180652;-43.9428901;30180-110
880000.0;100.0;3;3.0;2;São Pedro;Rua Viçosa;São Pedro;0;sao pedro;rua vicosa;-19.9454938;-43.9389531;30330-012
680000.0;100.0;3;2.0;2;Estoril;Rua Eugênio Vidigal Amaro;Estoril;0;estoril;rua eugenio vidigal amaro;-19.92083;-43.93778;30160-033
780000.0;96.0;3;1.0;2;Ouro Preto;Rua Nízio Torres;Ouro Preto;0;ouro preto;rua nizio torres;-19.8859625;-43.9856413;31320-262
430000.0;60.0;2;2.0;1;Jardim Atlântico;Rua Carlos Sá;Jardim Atlântico;0;jardim atlantico;rua carlos sa;-19.8414871;-43.9890445;31550-000
605078.0;59.0;3;2.0;2;Estoril;Rua Paulo Piedade Campos;Estoril;0;estoril;rua paulo piedade campos;-19.965417;-43.9647127;30493-030
463792.0;39.0;1;1.0;1;Estoril;Rua Paulo Piedade Campos;Estoril;0;estoril;rua paulo piedade campos;-19.965417;-43.9647127;30493-030
957990.0;73.0;3;2.0;2;Coração de Jesus;Rua Professor Otto Cirne;Coração de Jesus;0;coracao de jesus;rua professor otto cirne;-19.92083;-43.93778;30160-033
620000.0;90.0;3;2.0;2;Copacabana;Rua Viena;Copacabana;0;copacabana;rua viena;-19.8364574;-43.9896077;31550-000
1794695.0;152.0;4;5.0;3;Castelo;Rua Castelo de Abrantes;Castelo;0;castelo;rua castelo de abrantes;-19.8832683;-43.9965755;31330-000
890000.0;134.0;3;2.0;3;Itapoã;Rua José Oscar Barreira;Itapoã;0;itapoa;rua jose oscar barreira;-19.8386837;-43.9559214;31720-440
320000.0;51.0;2;1.0;1;Castelo;Rua Conceição Aparecida Augsten;Castelo;0;castelo;rua conceicao aparecida augsten;-19.8893338;-43.999193;31330-130
1330000.0;116.0;3;4.0;2;Castelo;Rua Castelo de Edimburgo;Castelo;0;castelo;rua castelo de edimburgo;-19.8782244;-44.0004445;31330-220
500000.0;71.0;2;1.0;1;Sagrada Família;Rua Alegrete;Sagrada Família;0;sagrada familia;rua alegrete;-19.8994443;-43.9204315;31035-460
450000.0;72.0;3;2.0;2;Salgado Filho;Rua Águas Formosas;Salgado Filho;0;salgado filho;rua aguas formosas;-19.9461108;-43.9777922;30421-351
700000.0;195.0;3;3.0;0;Centro;Rua Rio de Janeiro;Centro;0;centro;rua rio de janeiro;-19.925814;-43.9404836;30180-100
1269470.0;71.0;3;3.0;2;Sion;Rua Assunção;Sion;0;sion;rua assuncao;-19.9546848;-43.9362089;30315-250
495000.0;68.0;2;2.0;1;Nova Vista;Rua José Silva Passos;Outros;0;nova vista;rua jose silva passos;-19.8863469;-43.8920643;34700-100
520000.0;56.0;2;2.0;1;Buritis;Rua Ignácio Alves Martins;Buritis;0;buritis;rua ignacio alves martins;-19.9771144;-43.9779165;30575-839
350000.0;83.0;3;1.0;0;Centro;Praça Rui Barbosa;Centro;0;centro;praca rui barbosa;-19.9166191;-43.9348288;30160-000
610000.0;78.0;3;2.0;2;Dona Clara;Rua Desembargador Fernando Bhering;Dona Clara;0;dona clara;rua desembargador fernando bhering;-19.8601697;-43.9399356;31260-140
1290000.0;140.0;4;4.0;3;Buritis;Rua Professora Bartira Mourão;Buritis;0;buritis;rua professora bartira mourao;-19.9691788;-43.9679532;30492-020
1100000.0;188.0;3;3.0;3;Castelo;Rua Castelo Setúbal;Castelo;0;castelo;rua castelo setubal;-19.881538;-43.9941083;31330-572
430000.0;63.0;2;2.0;1;Buritis;Rua Ulisses Marcondes Escobar;Buritis;0;buritis;rua ulisses marcondes escobar;-19.9707913;-43.9702155;30492-025
610000.0;85.0;3;2.0;1;Grajaú;Rua Paula Cândido;Grajaú;0;grajau;rua paula candido;-19.9401692;-43.9654056;30460-620
320000.0;85.0;2;1.0;1;Renascença;Rua Uraricoera;Renascença;0;renascenca;rua uraricoera;-19.8921904;-43.9382071;31130-550
840000.0;160.0;2;2.0;3;Santo Antônio;Rua Professor Aníbal Mattos;Santo Antônio;0;santo antonio;rua professor anibal mattos;-19.9480618;-43.9450072;30350-213
1962000.0;142.0;4;1.0;4;Ouro Preto;Rua José Moura Peçanha;Ouro Preto;0;ouro preto;rua jose moura pecanha;-19.8750121;-43.9880781;31330-530
390000.0;75.0;3;1.0;1;Estoril;Rua Paulo Piedade Campos;Estoril;0;estoril;rua paulo piedade campos;-19.965417;-43.9647127;30493-030
580000.0;106.0;2;2.0;1;Santa Mônica;Rua Janete Clair;Santa Mônica;0;santa monica;rua janete clair;-19.8240518;-43.9771463;31525-410
1150000.0;78.0;3;3.0;1;Barro Preto;Rua Tenente Brito Melo;Barro Preto;0;barro preto;rua tenente brito melo;-19.9277471;-43.9561604;30180-070
1100000.0;180.0;3;3.0;3;Fernão Dias;Rua Professor Nardelli Bemfica;Fernão Dias;0;fernao dias;rua professor nardelli bemfica;-19.92083;-43.93778;30160-033
1088000.0;80.0;3;2.0;2;Santo Antônio;Rua Paulo Afonso;Santo Antônio;0;santo antonio;rua paulo afonso;-19.9374625;-43.9456292;30380-002
450000.0;49.0;2;1.0;2;Castelo;Rua Elson Nunes de Souza;Castelo;0;castelo;rua elson nunes de souza;-19.8893581;-43.9943443;30840-460
491330.0;60.0;2;2.0;1;Esplanada;Rua Boninas;Esplanada;0;esplanada;rua boninas;-19.9062641;-43.9044236;30285-010
195000.0;49.0;2;1.0;1;Europa;Rua Basiléia;Outros;0;europa;rua basileia;-19.7994582;-43.9705281;31640-060
345000.0;80.0;4;1.0;2;Cinquentenário;Rua Crisântemo;Outros;0;cinquentenario;rua crisantemo;-19.9570077;-43.9797028;30555-120
350000.0;95.0;2;1.0;1;Letícia;Rua Onofre Furtado da Silva;Letícia;0;leticia;rua onofre furtado da silva;-19.805822;-43.978295;31570-000
2100000.0;192.0;3;2.0;3;Luxemburgo;Rua Engenheiro Albert Scharle;Luxemburgo;0;luxemburgo;rua engenheiro albert scharle;-19.9462474;-43.9551703;30380-350
370000.0;71.0;3;1.0;1;Manacás;Rua Maria de Souza Alves;Manacás;0;manacas;rua maria de souza alves;-19.89275;-43.9975914;30840-480
463000.0;67.0;3;2.0;2;Rio Branco;Rua Newton da Costa Silveira;Rio Branco;0;rio branco;rua newton da costa silveira;-19.8185109;-43.9803928;31525-410
561100.0;54.0;2;2.0;1;Ventosa;Rua Paulo Piedade Campos;Outros;0;ventosa;rua paulo piedade campos;-19.9563042;-43.9689642;30494-225
620000.0;93.0;3;2.0;2;Buritis;Rua Sílvio de Oliveira Martins;Buritis;0;buritis;rua silvio de oliveira martins;-19.9738605;-43.969591;30575-180
647000.0;71.0;2;1.0;2;Santa Branca;Rua Ramalho Ortigão;Santa Branca;0;santa branca;rua ramalho ortigao;-19.8307182;-43.9654983;31565-180
534500.0;70.0;3;2.0;2;Manacás;Rua Raimunda Simões da Silva;Manacás;0;manacas;rua raimunda simoes da silva;-19.8968255;-43.9968077;30840-492
521400.0;65.0;3;1.0;1;Palmeiras;Rua Senhora do Porto;Palmeiras;0;palmeiras;rua senhora do porto;-19.9722576;-43.9834489;30575-730
580000.0;70.0;3;1.0;2;Santa Mônica;Rua Basílio da Gama;Santa Mônica;0;santa monica;rua basilio da gama;-19.8218044;-43.975169;31525-410
980000.0;180.0;4;3.0;2;Serra;Rua Pouso Alto;Serra;0;serra;rua pouso alto;-19.9333801;-43.9207114;30240-130
400000.0;70.0;3;1.0;1;Buritis;Rua Tereza Mota Valadares;Buritis;0;buritis;rua tereza mota valadares;-19.9740666;-43.9720029;30575-180
1050000.0;120.0;4;4.0;3;Alto Barroca;Rua Armindo Chaves;Alto Barroca;0;alto barroca;rua armindo chaves;-19.9337668;-43.9674451;30431-020
770000.0;82.0;3;2.0;2;Colégio Batista;Rua Álvares de Azevedo;Colégio Batista;0;colegio batista;rua alvares de azevedo;-19.9086139;-43.9393862;31110-150
650000.0;85.0;3;2.0;1;Castelo;Rua Castelo de Edimburgo;Castelo;0;castelo;rua castelo de edimburgo;-19.8782244;-44.0004445;31330-220
1570000.0;125.0;4;2.0;2;Santo Antônio;Rua Cristina;Santo Antônio;0;santo antonio;rua cristina;-19.9459082;-43.9404465;30330-012
489000.0;67.0;3;2.0;2;Palmeiras;Rua Senhora do Porto;Palmeiras;0;palmeiras;rua senhora do porto;-19.9722576;-43.9834489;30575-730
850000.0;85.0;3;2.0;2;Silveira;Rua Ilacir Pereira Lima;Silveira;0;silveira;rua ilacir pereira lima;-19.8918598;-43.929371;31140-540
330000.0;69.0;3;2.0;1;Buritis;Rua Heitor Menin;Buritis;0;buritis;rua heitor menin;-19.9670422;-43.9652827;30493-030
1600000.0;145.0;4;2.0;2;Cruzeiro;Rua Ouro Fino;Cruzeiro;0;cruzeiro;rua ouro fino;-19.9418609;-43.925543;30130-009
450000.0;75.0;4;2.0;2;Buritis;Rua Ernani Agricola;Buritis;0;buritis;rua ernani agricola;-19.92083;-43.93778;30160-033
408331.0;52.0;2;1.0;1;Ventosa;Rua Paulo Piedade Campos;Outros;0;ventosa;rua paulo piedade campos;-19.9563042;-43.9689642;30494-225
1100000.0;89.0;3;2.0;2;Palmares;Rua Joviano Naves;Palmares;0;palmares;rua joviano naves;-19.92083;-43.93778;30160-033
407000.0;93.0;3;1.0;1;Céu Azul;Rua Antônio José dos Santos;Céu Azul;0;ceu azul;rua antonio jose dos santos;-19.8208276;-43.9969994;31580-050
485000.0;80.0;3;2.0;1;Ouro Preto;Rua Jordânia;Ouro Preto;0;ouro preto;rua jordania;-19.8720383;-43.9880065;31340-000
870000.0;84.0;3;3.0;2;Buritis;Rua Eli Seabra Filho;Buritis;0;buritis;rua eli seabra filho;-19.9756214;-43.9751097;30575-740
549900.0;88.0;3;3.0;2;Carlos Prates;Rua Itambacuri;Carlos Prates;0;carlos prates;rua itambacuri;-19.9163084;-43.9662814;30411-030
1500000.0;143.0;4;3.0;4;Buritis;Rua Tito Guimarães;Buritis;0;buritis;rua tito guimaraes;-19.9682413;-43.9694068;30492-020
640000.0;67.0;2;2.0;2;Castelo;Rua Castelo de Belmonte;Castelo;0;castelo;rua castelo de belmonte;-19.8804048;-43.9947639;31330-120
592450.0;71.0;2;2.0;2;Indaiá;Rua Boaventura;Indaiá;0;indaia;rua boaventura;-19.8636038;-43.9547231;31270-250
570000.0;75.0;3;2.0;2;Copacabana;Rua Viena;Copacabana;0;copacabana;rua viena;-19.8364574;-43.9896077;31550-000
590000.0;55.0;2;2.0;2;Buritis;Rua Sílvio Menicucci;Buritis;0;buritis;rua silvio menicucci;-19.9794682;-43.9782675;30575-843
360000.0;95.0;3;2.0;1;Rio Branco;Rua Artur Flávio;Rio Branco;0;rio branco;rua artur flavio;-19.820481;-43.9824341;31525-410
753990.0;60.0;2;2.0;1;Coração de Jesus;Rua Professor Otto Cirne;Coração de Jesus;0;coracao de jesus;rua professor otto cirne;-19.92083;-43.93778;30160-033
430000.0;87.0;2;2.0;1;Penha;Rua Sônia;Outros;0;penha;rua sonia;-19.8782738;-43.9147998;31080-020
549000.0;97.0;3;2.0;1;Castelo;Avenida Altamiro Avelino Soares;Castelo;0;castelo;avenida altamiro avelino soares;-19.8801555;-44.0024485;31330-200
1200000.0;176.0;4;5.0;3;Liberdade;Rua Antônio Paulino de Castro;Liberdade;0;liberdade;rua antonio paulino de castro;-19.8592351;-43.9529347;31270-180
650000.0;99.0;3;2.0;2;Planalto;Rua Josué Azevedo;Planalto;0;planalto;rua josue azevedo;-19.8350418;-43.9475228;31720-440
650000.0;59.0;2;2.0;2;Nova Suíssa;Rua Helianto;Nova Suíssa;0;nova suissa;rua helianto;-19.9314961;-43.9725199;30421-238
880000.0;64.0;2;1.0;1;Centro;Rua dos Guajajaras;Centro;0;centro;rua dos guajajaras;-19.9246291;-43.9427902;30170-121
1090000.0;165.0;4;2.0;3;Itapoã;Rua Professor Ricardo Pinto;Itapoã;0;itapoa;rua professor ricardo pinto;-19.8382206;-43.9549263;31720-440
702200.0;80.0;3;2.0;2;Renascença;Rua Tefé;Renascença;0;renascenca;rua tefe;-19.8926122;-43.9404891;31130-550
600000.0;67.0;2;1.0;2;Castelo;Rua Castelo de Abrantes;Castelo;0;castelo;rua castelo de abrantes;-19.8832683;-43.9965755;31330-000
578300.0;73.0;3;1.0;2;João Pinheiro;Rua Mariano Procópio;João Pinheiro;0;joao pinheiro;rua mariano procopio;-19.930735;-43.9994142;30530-180
944800.0;85.0;3;4.0;2;Padre Eustáquio;Rua Progresso;Padre Eustáquio;0;padre eustaquio;rua progresso;-19.9143244;-43.9765287;30720-100
1000000.0;157.0;3;2.0;3;Liberdade;Rua Vital Brasil;Liberdade;0;liberdade;rua vital brasil;-19.8613248;-43.9545847;31270-250
385000.0;62.0;2;1.0;1;São Gabriel;Rua Pedra Lavrada;São Gabriel;0;sao gabriel;rua pedra lavrada;-19.8491044;-43.9127557;31845-425
740000.0;80.0;3;2.0;2;Buritis;Avenida Deputado Cristóvam Chiaradia;Buritis;0;buritis;avenida deputado cristovam chiaradia;-19.92083;-43.93778;30160-033
1000000.0;160.0;4;3.0;1;Santa Lúcia;Rua Sagitário;Santa Lúcia;0;santa lucia;rua sagitario;-19.9611318;-43.9493197;30316-110
399000.0;53.0;2;1.0;1;São João Batista;Rua Augusto Franco;São João Batista;0;sao joao batista;rua augusto franco;-19.8272316;-43.9652341;31565-180
459000.0;60.0;2;2.0;1;Serrano;Rua Jornalista Geraldo Resende;Serrano;0;serrano;rua jornalista geraldo resende;-19.8845619;-44.0142518;31330-200
1113970.0;101.0;3;3.0;2;Sion;Rua Haiti;Sion;0;sion;rua haiti;-19.9585011;-43.9394421;30320-380
240000.0;45.0;2;1.0;1;Estrela do Oriente;Rua Waldemar Correia de Almeida;Outros;0;estrela do oriente;rua waldemar correia de almeida;-19.9600291;-43.9863205;30580-250
1010000.0;135.0;4;4.0;4;Ouro Preto;Rua Desembargador Paulo Mota;Ouro Preto;0;ouro preto;rua desembargador paulo mota;-19.8844311;-43.9827441;31320-262
429000.0;53.0;2;2.0;1;Santa Branca;Rua Montese;Santa Branca;0;santa branca;rua montese;-19.8356951;-43.9657465;31565-180
890000.0;274.0;4;3.0;5;Vila Cloris;Rua das Fragatas;Vila Cloris;0;vila cloris;rua das fragatas;-19.8242438;-43.9461284;31744-060
650000.0;140.0;3;2.0;1;Cachoeirinha;Rua Cônego Santana;Cachoeirinha;0;cachoeirinha;rua conego santana;-19.8921192;-43.9438911;31130-550
700000.0;64.0;2;2.0;2;Prado;Rua Cura D'Ars;Prado;0;prado;rua cura d'ars;-19.9260694;-43.9640742;30411-203
499000.0;45.0;2;1.0;2;Santa Terezinha;Rua Conceição da Aparecida;Santa Terezinha;0;santa terezinha;rua conceicao da aparecida;-19.8724283;-44.0005325;31360-000
659000.0;80.0;3;2.0;2;Castelo;Rua Desembargador José Satyro;Castelo;0;castelo;rua desembargador jose satyro;-19.8886426;-43.9960496;30840-470
1200000.0;140.0;4;3.0;2;Sion;Rua da Groenlândia;Sion;0;sion;rua da groenlandia;-19.92083;-43.93778;30160-033
600000.0;55.0;2;2.0;2;Buritis;Rua Sílvio Menicucci;Buritis;0;buritis;rua silvio menicucci;-19.9794682;-43.9782675;30575-843
580000.0;75.0;3;1.0;2;Santa Amélia;Rua Deputado Salim Nacur;Santa Amélia;0;santa amelia;rua deputado salim nacur;-19.8439617;-43.9790983;31555-100
521100.0;70.0;3;2.0;2;João Pinheiro;Rua Mariano Procópio;João Pinheiro;0;joao pinheiro;rua mariano procopio;-19.930735;-43.9994142;30530-180
698671.0;70.0;3;1.0;2;Coração Eucarístico;Rua Dom João Antônio dos Santos;Coração Eucarístico;0;coracao eucaristico;rua dom joao antonio dos santos;-19.9209744;-43.9875856;30535-610
850000.0;106.0;4;3.0;2;Silveira;Rua Ilacir Pereira Lima;Silveira;0;silveira;rua ilacir pereira lima;-19.8918598;-43.929371;31140-540
480000.0;38.0;1;1.0;0;Buritis;Rua Geraldo Lúcio Vasconcelos;Buritis;0;buritis;rua geraldo lucio vasconcelos;-19.9809148;-43.9751321;30575-855
1047000.0;93.0;2;3.0;2;Pampulha;Rua dos Aeroviários;Pampulha;0;pampulha;rua dos aeroviarios;-19.857863;-43.9568898;31270-700
1990446.0;107.0;2;3.0;2;Lourdes;Rua Espírito Santo;Lourdes;0;lourdes;rua espirito santo;-19.9291906;-43.9400032;30160-907
590000.0;80.0;3;2.0;1;Paquetá;Rua Maria Cândida de Jesus;Paquetá;0;paqueta;rua maria candida de jesus;-19.8709021;-43.9932637;31340-000
355000.0;55.0;2;1.0;1;Sagrada Família;Rua João Gualberto Filho;Sagrada Família;0;sagrada familia;rua joao gualberto filho;-19.9035835;-43.9255271;31030-500
375000.0;50.0;2;1.0;1;Palmeiras;Rua Antônio de Andrade Mendes;Palmeiras;0;palmeiras;rua antonio de andrade mendes;-19.92083;-43.93778;30160-033
611241.0;85.0;2;2.0;2;Indaiá;Rua Boaventura;Indaiá;0;indaia;rua boaventura;-19.8636038;-43.9547231;31270-250
606268.0;59.0;3;2.0;2;Estoril;Rua Paulo Piedade Campos;Estoril;0;estoril;rua paulo piedade campos;-19.965417;-43.9647127;30493-030
450000.0;73.0;2;2.0;1;Planalto;Rua Senador Carneiro de Campos;Planalto;0;planalto;rua senador carneiro de campos;-19.8328247;-43.9446557;31742-036
1580000.0;87.0;3;2.0;3;São Pedro;Rua Cristina;São Pedro;0;sao pedro;rua cristina;-19.9466549;-43.937375;30330-012
790000.0;100.0;3;3.0;2;Sion;Rua Morada Nova;Sion;0;sion;rua morada nova;-19.9550843;-43.930081;30315-382
1400000.0;135.0;4;4.0;3;Liberdade;Rua Duarte da Costa;Liberdade;0;liberdade;rua duarte da costa;-19.8632577;-43.9522416;31270-300
507000.0;75.0;3;2.0;2;Salgado Filho;Rua Campo Formoso;Salgado Filho;0;salgado filho;rua campo formoso;-19.9484185;-43.9833552;30550-000
1990000.0;204.0;3;4.0;4;Buritis;Avenida Deputado Cristóvam Chiaradia;Buritis;0;buritis;avenida deputado cristovam chiaradia;-19.92083;-43.93778;30160-033
697500.0;65.0;2;1.0;2;Gutierrez;Rua Benjamim Jacob;Gutierrez;0;gutierrez;rua benjamim jacob;-19.940883;-43.9590024;30430-050
815990.0;66.0;3;2.0;2;Serra;Rua Pouso Alto;Serra;0;serra;rua pouso alto;-19.9333801;-43.9207114;30240-130
1100000.0;75.0;2;2.0;1;Barro Preto;Rua Juiz de Fora;Barro Preto;0;barro preto;rua juiz de fora;-19.9257426;-43.954247;30140-076
1345000.0;100.0;3;3.0;2;Lourdes;Rua Bernardo Guimarães;Lourdes;0;lourdes;rua bernardo guimaraes;-19.9281158;-43.944536;30160-042
550000.0;68.0;2;1.0;2;Paquetá;Rua Frei Martinho Burnier;Paquetá;0;paqueta;rua frei martinho burnier;-19.8678664;-43.9950118;31340-000
566775.0;56.0;2;2.0;1;Santa Terezinha;Avenida Heráclito Mourão de Miranda;Santa Terezinha;0;santa terezinha;avenida heraclito mourao de miranda;-19.8747217;-44.000271;31330-310
350000.0;70.0;2;1.0;2;Santa Amélia;Avenida da Sinfonia;Santa Amélia;0;santa amelia;avenida da sinfonia;-19.8325573;-43.9724063;31565-180
380000.0;93.0;3;1.0;0;Centro;Rua dos Guaranis;Centro;0;centro;rua dos guaranis;-19.9180652;-43.9428901;30180-110
797000.0;99.0;3;3.0;2;Buritis;Avenida Deputado Cristóvam Chiaradia;Buritis;0;buritis;avenida deputado cristovam chiaradia;-19.92083;-43.93778;30160-033
900000.0;134.0;3;3.0;2;Itapoã;Rua Dona Queridinha;Itapoã;0;itapoa;rua dona queridinha;-19.8372468;-43.9624414;31710-100
829000.0;80.0;3;3.0;2;Floresta;Rua Mucuri;Floresta;0;floresta;rua mucuri;-19.9197873;-43.928219;30150-110
451860.0;55.0;2;2.0;1;Jardim Atlântico;Rua Carlos Sá;Jardim Atlântico;0;jardim atlantico;rua carlos sa;-19.8414871;-43.9890445;31550-000
1015000.0;80.0;3;3.0;3;Prado;Rua Nepomuceno;Prado;0;prado;rua nepomuceno;-19.9266013;-43.9604449;30411-191
997000.0;155.0;4;4.0;2;Itapoã;Rua Gumercindo Couto e Silva;Itapoã;0;itapoa;rua gumercindo couto e silva;-19.8424758;-43.9567692;31720-440
830000.0;86.0;3;3.0;3;Dona Clara;Rua Desembargador Fernando Bhering;Dona Clara;0;dona clara;rua desembargador fernando bhering;-19.8601697;-43.9399356;31260-140
420000.0;80.0;2;1.0;2;Candelária;Rua Varzelândia;Candelária;0;candelaria;rua varzelandia;-19.8140882;-43.965731;31615-250
1800000.0;136.0;3;4.0;2;Lourdes;Rua São Paulo;Lourdes;0;lourdes;rua sao paulo;-19.9249431;-43.9416249;30170-121
535000.0;95.0;3;2.0;1;Calafate;Rua Aristóteles Caldeira;Calafate;0;calafate;rua aristoteles caldeira;-19.9274739;-43.9672298;30411-298
495000.0;95.0;3;3.0;1;Paquetá;Rua Glauber Rocha;Paquetá;0;paqueta;rua glauber rocha;-19.8685235;-43.9941393;31340-000
1350671.0;125.0;3;2.0;3;Palmares;Rua Joaquim Ribeiro Costa;Palmares;0;palmares;rua joaquim ribeiro costa;-19.8751849;-43.9303563;31160-540
700000.0;57.0;2;2.0;2;São Bento;Avenida Raja Gabaglia;São Bento;0;sao bento;avenida raja gabaglia;-19.9536762;-43.9595598;30494-170
1349999.0;113.0;3;2.0;2;Castelo;Rua Castelo de Edimburgo;Castelo;0;castelo;rua castelo de edimburgo;-19.8782244;-44.0004445;31330-220
390000.0;57.0;3;2.0;1;Castelo;Rua Doutor Fernando Scarpelli;Castelo;0;castelo;rua doutor fernando scarpelli;-19.8887932;-44.0017494;31330-130
988000.0;83.0;3;3.0;2;Graça;Rua Juruá;Graça;0;graca;rua jurua;-19.8988227;-43.9288931;30140-030
350000.0;50.0;2;1.0;2;Concórdia;Rua Itapeva;Concórdia;0;concordia;rua itapeva;-19.9017558;-43.9376379;31140-003
850000.0;108.0;4;2.0;2;Pampulha;Rua dos Aeroviários;Pampulha;0;pampulha;rua dos aeroviarios;-19.857863;-43.9568898;31270-700
750000.0;85.0;3;3.0;1;Santo Antônio;Rua Nunes Vieira;Santo Antônio;0;santo antonio;rua nunes vieira;-19.9423861;-43.9475132;30350-143
280000.0;45.0;2;1.0;0;Lagoinha;Rua Itabira;Outros;0;lagoinha;rua itabira;-19.9054832;-43.9421879;31210-790
415000.0;49.0;2;1.0;1;Castelo;Avenida Miguel Perrela;Castelo;0;castelo;avenida miguel perrela;-19.8793334;-43.9973791;31330-310
700000.0;96.0;3;2.0;2;Fernão Dias;Rua Queluzita;Fernão Dias;0;fernao dias;rua queluzita;-19.8693426;-43.9203807;31910-000
560000.0;110.0;3;2.0;1;Cidade Jardim;Rua Perdigão Malheiros;Cidade Jardim;0;cidade jardim;rua perdigao malheiros;-19.9413058;-43.9510457;30380-030
1250000.0;131.0;4;4.0;2;Sion;Rua da Groenlândia;Sion;0;sion;rua da groenlandia;-19.92083;-43.93778;30160-033
1019981.0;60.0;2;3.0;2;Santa Efigênia;Rua Padre Marinho;Santa Efigênia;0;santa efigenia;rua padre marinho;-19.9257052;-43.9223823;30150-340
740000.0;67.0;2;2.0;2;Liberdade;Rua Escravo Alexandre;Liberdade;0;liberdade;rua escravo alexandre;-19.8621033;-43.9563712;31270-250
950000.0;148.0;3;3.0;6;Santa Rosa;Rua Irmã Eufêmia;Santa Rosa;0;santa rosa;rua irma eufemia;-19.8616658;-43.9473479;31260-000
745400.0;83.0;3;2.0;2;Palmares;Avenida Pedro Serafim Ferreira;Palmares;0;palmares;avenida pedro serafim ferreira;-19.8724163;-43.9292904;31160-540
690000.0;110.0;3;2.0;2;Itapoã;Rua Doutor Mário Magalhães;Itapoã;0;itapoa;rua doutor mario magalhaes;-19.92083;-43.93778;30160-033
340000.0;68.0;2;1.0;1;Piratininga;Rua Norma;Piratininga;0;piratininga;rua norma;-19.8159557;-43.992034;31573-506
950000.0;112.0;3;2.0;0;Santo Antônio;Rua Abre Campo;Santo Antônio;0;santo antonio;rua abre campo;-19.9469641;-43.9438091;30350-213
585000.0;105.0;2;2.0;1;Araguaia;Rua Caio Viana Martins;Araguaia;0;araguaia;rua caio viana martins;-19.9906391;-44.0002149;30620-250
789500.0;76.0;3;3.0;2;Ouro Preto;Rua Sena Madureira;Ouro Preto;0;ouro preto;rua sena madureira;-19.8727502;-43.9891683;31340-000
1937162.0;142.0;3;2.0;2;Carmo;Rua Rio Verde;Carmo;0;carmo;rua rio verde;-19.9462923;-43.9341272;30310-750
1025000.0;60.0;2;2.0;2;Santo Agostinho;Rua Juiz de Fora;Santo Agostinho;0;santo agostinho;rua juiz de fora;-19.9294798;-43.9552575;30110-062
647000.0;68.0;3;2.0;2;Santa Inês;Rua Mantiqueira;Santa Inês;0;santa ines;rua mantiqueira;-19.888776;-43.9070923;31080-160
890000.0;114.0;3;2.0;2;Esplanada;Rua Boninas;Esplanada;0;esplanada;rua boninas;-19.9062641;-43.9044236;30285-010
862732.0;56.0;1;1.0;2;Santo Agostinho;Rua dos Aimorés;Santo Agostinho;0;santo agostinho;rua dos aimores;-19.9261033;-43.947482;30170-111
795000.0;140.0;4;2.0;2;Santo Antônio;Rua Matipó;Santo Antônio;0;santo antonio;rua matipo;-19.9474174;-43.9453612;30350-213
1121905.0;70.0;2;3.0;1;Nova Granada;Avenida Silva Lobo;Nova Granada;0;nova granada;avenida silva lobo;-19.9403663;-43.9672161;30460-620
1200000.0;103.0;3;2.0;2;Buritis;Rua Pedro Natalício de Morais;Buritis;0;buritis;rua pedro natalicio de morais;-19.9785325;-43.9726742;30575-815
1850000.0;190.0;4;3.0;2;Cidade Nova;Rua Vereador Teixeira de Azeredo;Cidade Nova;0;cidade nova;rua vereador teixeira de azeredo;-19.92083;-43.93778;30160-033
660000.0;106.0;3;3.0;2;Grajaú;Rua Litargírio;Grajaú;0;grajau;rua litargirio;-19.9367267;-43.9668742;30460-620
650000.0;90.0;3;2.0;1;Coração de Jesus;Rua Donato da Fonseca;Coração de Jesus;0;coracao de jesus;rua donato da fonseca;-19.9445901;-43.9525868;30380-210
567000.0;44.0;1;1.0;1;Pampulha;Rua General Aranha;Pampulha;0;pampulha;rua general aranha;-19.8573026;-43.9544918;31270-310
945000.0;114.0;4;3.0;3;Graça;Rua São Bento;Graça;0;graca;rua sao bento;-19.8994559;-43.9299998;30140-030
650000.0;75.0;3;1.0;2;Manacás;Rua Maestro George Marinuzzi;Manacás;0;manacas;rua maestro george marinuzzi;-19.8933447;-43.997886;30840-300
520000.0;106.0;3;2.0;1;Heliópolis;Rua Doutor Alexandre Sartori;Heliópolis;0;heliopolis;rua doutor alexandre sartori;-19.8445645;-43.938754;31741-555
245000.0;52.0;2;1.0;1;Jardim Leblon;Rua São Gonçalo do Pará;Jardim Leblon;1;jardim leblon;rua sao goncalo do para;-19.8221899;-43.9914053;31573-506
399000.0;43.0;2;1.0;1;São João Batista;Rua Augusto Franco;São João Batista;0;sao joao batista;rua augusto franco;-19.8272316;-43.9652341;31565-180
426657.0;53.0;2;2.0;1;Estoril;Rua Paulo Piedade Campos;Estoril;0;estoril;rua paulo piedade campos;-19.965417;-43.9647127;30493-030
860000.0;62.0;2;2.0;0;Cruzeiro;Rua Mestre Lucas;Cruzeiro;0;cruzeiro;rua mestre lucas;-19.9446965;-43.9241805;30310-150
1052953.0;62.0;2;2.0;2;Lourdes;Rua Santa Catarina;Lourdes;0;lourdes;rua santa catarina;-19.9328638;-43.9465832;30160-041
310000.0;65.0;3;1.0;1;Santa Mônica;Rua Ministro Oliveira Salazar;Santa Mônica;0;santa monica;rua ministro oliveira salazar;-19.8237426;-43.9713245;31520-400
1260000.0;156.0;4;2.0;3;Buritis;Rua Stella Hanriot;Buritis;0;buritis;rua stella hanriot;-19.9715569;-43.9714507;30575-180
1962000.0;142.0;4;4.0;4;Ouro Preto;Rua José Moura Peçanha;Ouro Preto;0;ouro preto;rua jose moura pecanha;-19.8750121;-43.9880781;31330-530
464000.0;110.0;3;1.0;2;São João Batista;Rua José Aguilar Filho;São João Batista;0;sao joao batista;rua jose aguilar filho;-19.8179055;-43.9644813;31615-250
1280000.0;85.0;3;3.0;2;Gutierrez;Rua Ludgero Dolabela;Gutierrez;0;gutierrez;rua ludgero dolabela;-19.9352574;-43.9549355;30441-036
1100000.0;74.0;2;1.0;2;Barro Preto;Rua Juiz de Fora;Barro Preto;0;barro preto;rua juiz de fora;-19.9257426;-43.954247;30140-076
750000.0;100.0;3;2.0;2;São Pedro;Rua São João Evangelista;São Pedro;0;sao pedro;rua sao joao evangelista;-19.9476299;-43.9373294;30330-000
1150000.0;140.0;4;3.0;4;Liberdade;Rua Doutor Teles;Liberdade;0;liberdade;rua doutor teles;-19.8610634;-43.9539345;31270-180
500000.0;56.0;2;1.0;1;Dom Cabral;Avenida Edgar da Mata Machado;Outros;0;dom cabral;avenida edgar da mata machado;-19.9201706;-43.9973468;30535-901
1275000.0;119.0;4;3.0;3;Sagrada Família;Rua Geraldo Faria de Souza;Sagrada Família;0;sagrada familia;rua geraldo faria de souza;-19.8997003;-43.9252531;31035-480
575000.0;102.0;2;1.0;1;Brasil Industrial;Rua Ari Abílio Ferreira;Outros;0;brasil industrial;rua ari abilio ferreira;-19.9973079;-44.0151606;30626-110
1395000.0;138.0;4;1.0;2;Santo Antônio;Rua Rafael Magalhães;Santo Antônio;0;santo antonio;rua rafael magalhaes;-19.9417686;-43.944756;30330-260
650000.0;150.0;2;2.0;2;Itapoã;Rua Conselheiro Pena;Itapoã;0;itapoa;rua conselheiro pena;-19.83291;-43.9630138;31710-100
540000.0;73.0;3;1.0;2;Miramar;Rua Águia;Outros;0;miramar;rua aguia;-19.9927383;-44.0096497;30660-560
1490000.0;160.0;4;4.0;3;Palmares;Rua Coronel Jairo Pereira;Palmares;0;palmares;rua coronel jairo pereira;-19.8727877;-43.9304523;31160-540
560000.0;90.0;3;2.0;1;Sion;Rua Venezuela;Sion;0;sion;rua venezuela;-19.9507529;-43.9362411;30310-000
490000.0;70.0;3;1.0;0;Lourdes;Rua da Bahia;Lourdes;0;lourdes;rua da bahia;-19.9307295;-43.9390996;30160-017
1120000.0;60.0;2;2.0;1;Lourdes;Rua Gonçalves Dias;Lourdes;0;lourdes;rua goncalves dias;-19.9307386;-43.9392867;30160-017
720000.0;48.0;1;2.0;2;Savassi;Rua Professor Moraes;Savassi;0;savassi;rua professor moraes;-19.92083;-43.93778;30160-033
290000.0;60.0;3;1.0;1;Fernão Dias;Rua José Carvalho Monteiro;Fernão Dias;0;fernao dias;rua jose carvalho monteiro;-19.8691346;-43.9181958;31910-000
237500.0;44.0;2;1.0;1;Letícia;Rua Doutor Pedro Ruela;Letícia;0;leticia;rua doutor pedro ruela;-19.806054;-43.9766528;31570-000
660000.0;62.0;3;2.0;1;Planalto;Avenida Doutor Cristiano Guimarães;Planalto;0;planalto;avenida doutor cristiano guimaraes;-19.8289924;-43.9519176;31720-300
750000.0;63.0;2;2.0;2;São Lucas;Rua Monte Alegre;São Lucas;0;sao lucas;rua monte alegre;-19.9319281;-43.9202507;30220-000
1150000.0;113.0;4;3.0;2;Buritis;Rua Professor Miguel de Souza;Buritis;0;buritis;rua professor miguel de souza;-19.9775243;-43.9683098;30575-210
1250000.0;250.0;4;3.0;3;Santo Antônio;Rua Joaquim Murtinho;Santo Antônio;0;santo antonio;rua joaquim murtinho;-19.9386023;-43.9449143;30160-038
1730000.0;148.0;2;1.0;3;Santo Agostinho;Rua Mato Grosso;Santo Agostinho;0;santo agostinho;rua mato grosso;-19.9280508;-43.9493253;30190-130
650000.0;86.0;3;3.0;2;Liberdade;Rua Boaventura;Liberdade;0;liberdade;rua boaventura;-19.8636038;-43.9547231;31270-250
1100000.0;93.0;3;2.0;2;Caiçaras;Rua Agostinho Bretas;Caiçaras;0;caicaras;rua agostinho bretas;-19.9029956;-43.9711778;30770-410
689000.0;109.0;3;3.0;1;Ouro Preto;Rua Sena Madureira;Ouro Preto;0;ouro preto;rua sena madureira;-19.8727502;-43.9891683;31340-000
750000.0;74.0;3;2.0;2;São Lucas;Rua Coronel Fulgêncio;São Lucas;0;sao lucas;rua coronel fulgencio;-19.9279683;-43.9193324;30315-200
532000.0;135.0;2;2.0;1;Nova Floresta;Rua Salgueiro;Nova Floresta;0;nova floresta;rua salgueiro;-19.8885616;-43.9329863;31160-210
1000000.0;131.0;4;3.0;2;Dona Clara;Rua Ministro Ivan Lins;Dona Clara;0;dona clara;rua ministro ivan lins;-19.8598374;-43.9395905;31260-140
440000.0;51.0;2;2.0;1;Santa Mônica;Rua do Carmelo;Santa Mônica;0;santa monica;rua do carmelo;-19.8307541;-43.9700416;31565-180
390000.0;85.0;3;1.0;1;Diamante;Rua Maria Elizabet Pessoa;Diamante;0;diamante;rua maria elizabet pessoa;-19.92083;-43.93778;30160-033
2600000.0;128.0;3;3.0;2;Lourdes;Rua da Bahia;Lourdes;0;lourdes;rua da bahia;-19.9307295;-43.9390996;30160-017
999000.0;120.0;4;3.0;2;Sion;Rua Doutor Astolpho Vieira de Rezende;Sion;0;sion;rua doutor astolpho vieira de rezende;-19.92083;-43.93778;30160-033
1320000.0;141.0;3;2.0;3;Itapoã;Rua Gumercindo Couto e Silva;Itapoã;0;itapoa;rua gumercindo couto e silva;-19.8424758;-43.9567692;31720-440
350000.0;54.0;2;1.0;1;Manacás;Rua Geraldo Magela de Almeida;Manacás;0;manacas;rua geraldo magela de almeida;-19.8947941;-43.9982787;30840-300
1350000.0;97.0;3;3.0;2;Buritis;Rua José Teófilo Marques;Buritis;0;buritis;rua jose teofilo marques;-19.9744389;-43.9776893;30575-833
1469014.0;97.0;3;3.0;2;Santo Antônio;Rua Abre Campo;Santo Antônio;0;santo antonio;rua abre campo;-19.9469641;-43.9438091;30350-213
377000.0;44.0;2;1.0;1;Jardim dos Comerciários;Rua João Hilbert;Outros;0;jardim dos comerciarios;rua joao hilbert;-19.8008405;-43.9774742;31660-050
690120.0;67.0;2;2.0;2;Serra;Rua Senador Pompéo;Serra;0;serra;rua senador pompeo;-19.9362523;-43.9198553;30240-130
365000.0;46.0;2;1.0;1;Palmeiras;Rua Antônio de Andrade Mendes;Palmeiras;0;palmeiras;rua antonio de andrade mendes;-19.92083;-43.93778;30160-033
499000.0;50.0;2;2.0;1;Jardim Atlântico;Rua Augusto Moreira;Jardim Atlântico;0;jardim atlantico;rua augusto moreira;-19.92083;-43.93778;30160-033
895000.0;160.0;3;2.0;3;Santa Amélia;Rua dos Expedicionários;Santa Amélia;0;santa amelia;rua dos expedicionarios;-19.8452925;-43.9805798;31555-100
742000.0;65.0;2;2.0;2;Liberdade;Rua Escravo Alexandre;Liberdade;0;liberdade;rua escravo alexandre;-19.8621033;-43.9563712;31270-250
1901000.0;161.0;4;4.0;4;Castelo;Rua Castelo de Amieira;Castelo;0;castelo;rua castelo de amieira;-19.8770174;-44.0010183;31330-310
1690000.0;148.0;4;4.0;3;Jaraguá;Rua Garumã;Jaraguá;0;jaragua;rua garuma;-19.8578028;-43.9530134;31270-180
680000.0;65.0;2;2.0;2;Liberdade;Rua Escravo Alexandre;Liberdade;0;liberdade;rua escravo alexandre;-19.8621033;-43.9563712;31270-250
885000.0;66.0;3;1.0;2;Santo Antônio;Rua Deputado Álvaro Sales;Santo Antônio;0;santo antonio;rua deputado alvaro sales;-19.9490157;-43.9461962;30350-213
2887186.0;138.0;4;5.0;3;Santo Agostinho;Rua Alvarenga Peixoto;Santo Agostinho;0;santo agostinho;rua alvarenga peixoto;-19.9288279;-43.9523286;30170-041
621454.0;59.0;3;1.0;1;Estoril;Rua Paulo Piedade Campos;Estoril;0;estoril;rua paulo piedade campos;-19.965417;-43.9647127;30493-030
750000.0;105.0;3;2.0;1;Coração de Jesus;Praça Abílio Nunes de Figueiredo;Coração de Jesus;0;coracao de jesus;praca abilio nunes de figueiredo;-19.92083;-43.93778;30160-033
499000.0;72.0;2;1.0;1;Santa Amélia;Rua Deputado Salim Nacur;Santa Amélia;0;santa amelia;rua deputado salim nacur;-19.8439617;-43.9790983;31555-100
545000.0;113.0;2;2.0;1;Castelo;Rua Castelo de Sintra;Castelo;0;castelo;rua castelo de sintra;-19.8784936;-44.0040732;31330-200
620000.0;75.0;2;2.0;2;Gutierrez;Rua Gastão da Cunha;Gutierrez;0;gutierrez;rua gastao da cunha;-19.9454835;-43.9598588;30451-225
630000.0;126.0;3;2.0;1;Santa Amélia;Rua Humberto Rosa Teixeira;Santa Amélia;0;santa amelia;rua humberto rosa teixeira;-19.8353431;-43.9728539;31560-140
1850000.0;160.0;4;4.0;2;Luxemburgo;Rua Elias Antônio Jorge;Luxemburgo;0;luxemburgo;rua elias antonio jorge;-19.92083;-43.93778;30160-033
1695000.0;135.0;4;3.0;4;Belvedere;Rua Desembargador Jorge Fontana;Belvedere;0;belvedere;rua desembargador jorge fontana;-19.9755464;-43.9420204;30320-900
1320000.0;86.0;3;2.0;2;Cruzeiro;Rua Bambuí;Cruzeiro;0;cruzeiro;rua bambui;-19.9480075;-43.9218079;30310-360
1320000.0;250.0;3;2.0;4;Fernão Dias;Rua José Mourão;Fernão Dias;0;fernao dias;rua jose mourao;-19.8728744;-43.9156253;31910-000
750000.0;110.0;3;2.0;2;Serra;Rua Guaxupé;Serra;0;serra;rua guaxupe;-19.9403983;-43.9136534;30220-330
620000.0;60.0;3;2.0;2;Copacabana;Rua Viena;Copacabana;0;copacabana;rua viena;-19.8364574;-43.9896077;31550-000
350000.0;50.0;2;1.0;1;Palmeiras;Rua Antônio de Andrade Mendes;Palmeiras;0;palmeiras;rua antonio de andrade mendes;-19.92083;-43.93778;30160-033
2400000.0;300.0;5;7.0;4;Itapoã;Rua Dona Queridinha;Itapoã;0;itapoa;rua dona queridinha;-19.8372468;-43.9624414;31710-100
780000.0;105.0;3;2.0;2;Suzana;Rua Marechal Rondon;Outros;0;suzana;rua marechal rondon;-19.92083;-43.93778;30160-033
734558.0;83.0;3;2.0;1;Paquetá;Rua Póvoa de Varzim;Paquetá;0;paqueta;rua povoa de varzim;-19.8700667;-43.9934981;31340-000
914576.0;72.0;2;3.0;2;Cruzeiro;Rua Pium-I;Cruzeiro;0;cruzeiro;rua pium-i;-19.9426434;-43.9299187;30310-560
780000.0;90.0;3;2.0;2;Santo Antônio;Rua Matipó;Santo Antônio;0;santo antonio;rua matipo;-19.9474174;-43.9453612;30350-213
1100000.0;170.0;4;4.0;2;Serra;Rua Senador Pompéo;Serra;0;serra;rua senador pompeo;-19.9362523;-43.9198553;30240-130
1090000.0;89.0;3;2.0;2;Buritis;Avenida Senador José Augusto;Buritis;0;buritis;avenida senador jose augusto;-19.9822816;-43.9800392;30575-847
699000.0;83.0;3;3.0;1;Castelo;Avenida Miguel Perrela;Castelo;0;castelo;avenida miguel perrela;-19.8793334;-43.9973791;31330-310
435000.0;47.0;3;1.0;1;Palmeiras;Rua Senhora do Porto;Palmeiras;0;palmeiras;rua senhora do porto;-19.9722576;-43.9834489;30575-730
750000.0;157.0;5;3.0;1;Silveira;Rua Everardo Vieira;Silveira;0;silveira;rua everardo vieira;-19.8893581;-43.9311599;31170-020
429000.0;56.0;1;1.0;2;Ouro Preto;Rua Zilah Correa de Araújo;Ouro Preto;0;ouro preto;rua zilah correa de araujo;-19.8714005;-43.9844684;31310-440
270000.0;43.0;2;1.0;1;Brasil Industrial;Rua João Ferreira Cardoso;Outros;0;brasil industrial;rua joao ferreira cardoso;-20.0031662;-44.0134622;30626-110
1430000.0;100.0;3;2.0;2;Santo Agostinho;Avenida Olegário Maciel;Santo Agostinho;0;santo agostinho;avenida olegario maciel;-19.9288594;-43.9469221;30180-112
668000.0;64.0;2;2.0;2;Alto Barroca;Rua Armindo Chaves;Alto Barroca;0;alto barroca;rua armindo chaves;-19.9337668;-43.9674451;30431-020
1220000.0;147.0;4;3.0;3;Ouro Preto;Rua Randolfo Trindade;Ouro Preto;0;ouro preto;rua randolfo trindade;-19.8865051;-43.9821192;31320-262
815000.0;65.0;2;2.0;2;Santo Antônio;Rua Teixeira de Freitas;Santo Antônio;0;santo antonio;rua teixeira de freitas;-19.9476458;-43.947368;30350-213
550000.0;106.0;2;2.0;1;União;Rua Flor-de-guambé;União;0;uniao;rua flor-de-guambe;-19.8822679;-43.9276401;31160-370
700000.0;125.0;3;2.0;2;Castelo;Rua Doutor Rubens Guimarães;Castelo;0;castelo;rua doutor rubens guimaraes;-19.8885863;-43.9977043;30840-470
1600000.0;70.0;2;3.0;2;Lourdes;Rua dos Aimorés;Lourdes;0;lourdes;rua dos aimores;-19.9280779;-43.939501;30160-907
1250000.0;112.0;4;3.0;3;Ipiranga;Rua Conde de Monte Cristo;Ipiranga;0;ipiranga;rua conde de monte cristo;-19.8786565;-43.9314508;31160-440
549000.0;101.0;2;2.0;2;Santa Branca;Rua Norte;Santa Branca;0;santa branca;rua norte;-19.8306488;-43.968654;31565-180
1250000.0;226.0;4;3.0;2;Vila Paris;Rua Visconde do Rio das Velhas;Vila Paris;0;vila paris;rua visconde do rio das velhas;-19.9518394;-43.9488525;30350-213
799900.0;120.0;3;2.0;2;Itapoã;Rua Professor Baeta Viana;Itapoã;0;itapoa;rua professor baeta viana;-19.8368066;-43.9608369;31710-100
750000.0;141.0;3;1.0;2;Santa Mônica;Rua Ministro Oliveira Salazar;Santa Mônica;0;santa monica;rua ministro oliveira salazar;-19.8237426;-43.9713245;31520-400
614000.0;75.0;3;2.0;2;União;Rua Otávio Otoni;União;0;uniao;rua otavio otoni;-19.8845253;-43.9195561;31170-590
1200000.0;176.0;4;4.0;3;Liberdade;Rua Antônio Paulino de Castro;Liberdade;0;liberdade;rua antonio paulino de castro;-19.8592351;-43.9529347;31270-180
1380000.0;126.0;4;3.0;3;Buritis;Rua Tito Guimarães;Buritis;0;buritis;rua tito guimaraes;-19.9682413;-43.9694068;30492-020
750000.0;107.0;3;2.0;1;Luxemburgo;Rua Doutor Sette Câmara;Luxemburgo;0;luxemburgo;rua doutor sette camara;-19.9433348;-43.955814;30380-103
795000.0;177.0;4;3.0;2;Fernão Dias;Rua Jornalista Lena Santos;Fernão Dias;0;fernao dias;rua jornalista lena santos;-19.8726742;-43.9152738;31910-000
740400.0;83.0;3;2.0;2;Palmares;Avenida Pedro Serafim Ferreira;Palmares;0;palmares;avenida pedro serafim ferreira;-19.8724163;-43.9292904;31160-540
820000.0;85.0;3;2.0;2;Buritis;Rua Rubens Caporali Ribeiro;Buritis;0;buritis;rua rubens caporali ribeiro;-19.9813042;-43.9764901;30575-855
569900.0;72.0;3;2.0;2;Serrano;Rua Itambé do Mato Dentro;Serrano;0;serrano;rua itambe do mato dentro;-19.8772784;-44.009027;31360-000
1650000.0;139.0;4;3.0;4;Palmares;Rua Décio Salema;Palmares;0;palmares;rua decio salema;-19.8750862;-43.930767;31160-440
1080000.0;116.0;2;2.0;2;Barro Preto;Rua Bernardo Guimarães;Barro Preto;0;barro preto;rua bernardo guimaraes;-19.9259036;-43.9535914;30140-076
570000.0;66.0;3;2.0;2;Sagrada Família;Rua São Lázaro;Sagrada Família;0;sagrada familia;rua sao lazaro;-19.9015744;-43.9263416;31140-020
909000.0;123.0;3;2.0;3;Itapoã;Rua Sebastião Nepomuceno;Itapoã;0;itapoa;rua sebastiao nepomuceno;-19.8389315;-43.9552129;31720-440
390100.0;61.0;2;1.0;1;Heliópolis;Rua José Antenor;Heliópolis;0;heliopolis;rua jose antenor;-19.8451722;-43.9360289;31741-424
597000.0;90.0;3;2.0;2;Cidade Jardim;Rua Conde de Linhares;Cidade Jardim;0;cidade jardim;rua conde de linhares;-19.935895;-43.9487865;30180-122
581000.0;59.0;3;1.0;1;Estoril;Rua Paulo Piedade Campos;Estoril;0;estoril;rua paulo piedade campos;-19.965417;-43.9647127;30493-030
679000.0;108.0;3;3.0;2;Fernão Dias;Rua José Júlio Ferreira;Fernão Dias;0;fernao dias;rua jose julio ferreira;-19.8726076;-43.9171459;31910-000
850000.0;172.0;3;3.0;2;Padre Eustáquio;Rua Vila Rica;Padre Eustáquio;0;padre eustaquio;rua vila rica;-19.9172434;-43.9819102;30730-430
471514.0;57.0;1;1.0;1;Estoril;Rua Paulo Piedade Campos;Estoril;0;estoril;rua paulo piedade campos;-19.965417;-43.9647127;30493-030
729000.0;98.0;3;1.0;2;Graça;Rua Juacema;Graça;0;graca;rua juacema;-19.8994065;-43.9298534;30140-030
890000.0;118.0;4;3.0;1;Cidade Nova;Rua Doutor Júlio Otaviano Ferreira;Cidade Nova;0;cidade nova;rua doutor julio otaviano ferreira;-19.8892477;-43.9227546;31170-200
540000.0;76.0;3;2.0;2;São Geraldo;Rua Arapari;Outros;0;sao geraldo;rua arapari;-19.8974449;-43.8940657;30150-500
1890000.0;157.0;4;5.0;3;Itapoã;Rua Professor Baeta Viana;Itapoã;0;itapoa;rua professor baeta viana;-19.8368066;-43.9608369;31710-100
805000.0;76.0;3;2.0;2;Dona Clara;Rua Bento Mendes Castanheira;Dona Clara;0;dona clara;rua bento mendes castanheira;-19.8603897;-43.9392591;31260-140
548000.0;103.0;3;2.0;2;Santa Mônica;Rua dos Javaês;Santa Mônica;0;santa monica;rua dos javaes;-19.8260795;-43.9821302;31540-360
1300000.0;226.0;4;3.0;2;Liberdade;Rua Vital Brasil;Liberdade;0;liberdade;rua vital brasil;-19.8613248;-43.9545847;31270-250
619038.0;61.0;2;2.0;2;Serra;Rua Senador Pompéo;Serra;0;serra;rua senador pompeo;-19.9362523;-43.9198553;30240-130
1350000.0;159.0;4;3.0;2;Sion;Rua Venezuela;Sion;0;sion;rua venezuela;-19.9507529;-43.9362411;30310-000
594113.0;85.0;2;1.0;2;Indaiá;Rua Boaventura;Indaiá;0;indaia;rua boaventura;-19.8636038;-43.9547231;31270-250
1050000.0;80.0;2;2.0;2;Santo Antônio;Rua Marquês de Maricá;Santo Antônio;0;santo antonio;rua marques de marica;-19.9386617;-43.9465605;30380-002
599000.0;130.0;4;3.0;2;São Luiz;Alameda dos Jacarandás;São Luiz;0;sao luiz;alameda dos jacarandas;-19.8587703;-43.9680899;31275-050
1329239.0;71.0;2;3.0;2;Sion;Rua Chicago;Sion;0;sion;rua chicago;-19.9532566;-43.9332269;30315-550
1100000.0;177.0;3;1.0;2;Santo Antônio;Rua Guilherme de Almeida;Santo Antônio;0;santo antonio;rua guilherme de almeida;-19.9485717;-43.9451686;30350-213
970000.0;150.0;3;3.0;1;Lourdes;Avenida do Contorno;Lourdes;0;lourdes;avenida do contorno;-19.9378937;-43.9444073;30160-038
750000.0;87.0;3;2.0;2;Planalto;Rua Hélio Salomão;Planalto;0;planalto;rua helio salomao;-19.8314137;-43.9576566;31720-300
700000.0;125.0;3;2.0;4;Planalto;Rua dos Sacramentinos;Planalto;0;planalto;rua dos sacramentinos;-19.8416252;-43.9476129;31720-440
680000.0;78.0;1;2.0;2;Buritis;Avenida Professor Mário Werneck;Buritis;0;buritis;avenida professor mario werneck;-19.9758796;-43.9692291;30575-180
443655.0;49.0;2;2.0;1;Estoril;Rua Paulo Piedade Campos;Estoril;0;estoril;rua paulo piedade campos;-19.965417;-43.9647127;30493-030
1090000.0;172.0;2;1.0;3;Padre Eustáquio;Rua Curupaiti;Padre Eustáquio;0;padre eustaquio;rua curupaiti;-19.9172558;-43.9859447;30730-420
1490000.0;139.0;4;3.0;3;Castelo;Rua Castelo Moura;Castelo;0;castelo;rua castelo moura;-19.8797264;-44.0018536;31330-220
489000.0;112.0;2;2.0;2;Santa Mônica;Rua dos Bororós;Santa Mônica;0;santa monica;rua dos bororos;-19.8253176;-43.9830957;31540-360
1047000.0;93.0;3;2.0;2;Pampulha;Rua dos Aeroviários;Pampulha;0;pampulha;rua dos aeroviarios;-19.857863;-43.9568898;31270-700
1100000.0;130.0;4;2.0;2;Cruzeiro;Rua Américo Diamantino;Cruzeiro;0;cruzeiro;rua americo diamantino;-19.9485269;-43.9212122;30310-360
690000.0;104.0;3;2.0;3;Ouro Preto;Rua Doutor Júlio Soares;Ouro Preto;0;ouro preto;rua doutor julio soares;-19.8683601;-43.9891778;31340-150
850000.0;85.0;3;2.0;3;Santa Rosa;Rua David Alves do Vale;Santa Rosa;0;santa rosa;rua david alves do vale;-19.8634011;-43.9441692;31420-160
780000.0;106.0;4;2.0;2;Serrano;Rua Hélia Ricaldoni de Freitas;Serrano;0;serrano;rua helia ricaldoni de freitas;-19.878308;-44.0104977;31330-200
850000.0;130.0;3;3.0;2;Manacás;Rua Francisco Magalhães Gomes;Manacás;0;manacas;rua francisco magalhaes gomes;-19.8939738;-43.998234;30840-300
888000.0;171.0;3;3.0;2;Sagrada Família;Rua João Gualberto Filho;Sagrada Família;0;sagrada familia;rua joao gualberto filho;-19.9035835;-43.9255271;31030-500
890000.0;135.0;3;2.0;2;Dona Clara;Rua Etelvina Vaz de Melo;Dona Clara;0;dona clara;rua etelvina vaz de melo;-19.8594742;-43.9424238;31260-140
1260000.0;205.0;3;2.0;2;Itapoã;Rua Gumercindo Couto e Silva;Itapoã;0;itapoa;rua gumercindo couto e silva;-19.8424758;-43.9567692;31720-440
720000.0;89.0;3;3.0;2;Liberdade;Rua Custódio de Melo;Liberdade;0;liberdade;rua custodio de melo;-19.8626525;-43.9515537;31270-300
530000.0;47.0;1;1.0;2;Buritis;Rua Deputado Fábio Vasconcelos;Buritis;0;buritis;rua deputado fabio vasconcelos;-19.9731041;-43.9764617;30575-833
570000.0;98.0;3;2.0;1;Cruzeiro;Rua Muzambinho;Cruzeiro;0;cruzeiro;rua muzambinho;-19.9461918;-43.9228446;30310-150
670000.0;85.0;3;2.0;1;União;Rua Alberto Cintra;União;0;uniao;rua alberto cintra;-19.8809841;-43.9283326;31160-370
1000000.0;186.0;4;2.0;3;Coração de Jesus;Rua Perdigão Malheiros;Coração de Jesus;0;coracao de jesus;rua perdigao malheiros;-19.9434373;-43.9511321;30380-210
330000.0;60.0;2;2.0;1;Santa Branca;Rua São João da Vereda;Santa Branca;0;santa branca;rua sao joao da vereda;-19.8321355;-43.9659314;31565-180
500000.0;120.0;3;1.0;2;Prado;Rua Maranguape;Prado;0;prado;rua maranguape;-19.9295264;-43.9687511;30411-290
1030000.0;116.0;3;2.0;2;Liberdade;Rua Doutor Teles;Liberdade;0;liberdade;rua doutor teles;-19.8610634;-43.9539345;31270-180
650000.0;125.0;3;2.0;2;Caiçara-Adelaide;Rua Atlas;Caiçara-Adelaide;0;caicara-adelaide;rua atlas;-19.9011693;-43.9785931;30750-170
1470000.0;126.0;4;3.0;3;Serra;Rua Capelinha;Serra;0;serra;rua capelinha;-19.9407465;-43.9156679;30220-330
420000.0;103.0;4;1.0;1;Sagrada Família;Rua São Joaquim;Sagrada Família;0;sagrada familia;rua sao joaquim;-19.8976363;-43.9208536;31035-460
585000.0;90.0;3;2.0;0;Lourdes;Rua dos Guajajaras;Lourdes;0;lourdes;rua dos guajajaras;-19.9255535;-43.9390705;30180-100
815000.0;110.0;3;2.0;1;Anchieta;Rua Adolfo Pereira;Anchieta;0;anchieta;rua adolfo pereira;-19.9498406;-43.9230722;30160-043
450000.0;48.0;2;2.0;1;Lagoinha;Rua Jequeri;Outros;0;lagoinha;rua jequeri;-19.9091979;-43.94478;31210-030
980000.0;140.0;4;2.0;4;Buritis;Rua Ernani Agricola;Buritis;0;buritis;rua ernani agricola;-19.92083;-43.93778;30160-033
1350000.0;109.0;3;2.0;2;Santo Agostinho;Avenida do Contorno;Santo Agostinho;0;santo agostinho;avenida do contorno;-19.9333126;-43.9540733;30441-025
1040000.0;113.0;4;3.0;2;Castelo;Rua Castelo Lamego;Castelo;0;castelo;rua castelo lamego;-19.8802449;-43.9970555;31330-220
1900000.0;292.0;4;4.0;3;Santo Antônio;Rua Conselheiro Quintiliano Silva;Santo Antônio;0;santo antonio;rua conselheiro quintiliano silva;-19.9404754;-43.9452073;30330-260
341990.0;47.0;1;1.0;1;Havaí;Rua Zilda Gama;Havaí;0;havai;rua zilda gama;-19.95697;-43.9762662;30555-120
720000.0;55.0;2;1.0;2;Liberdade;Rua Boaventura;Liberdade;0;liberdade;rua boaventura;-19.8636038;-43.9547231;31270-250
599000.0;124.0;2;2.0;2;Planalto;Rua Terezinha Lopes de Azevedo;Planalto;0;planalto;rua terezinha lopes de azevedo;-19.8326558;-43.9416415;31742-036
995000.0;160.0;3;2.0;2;Santo Antônio;Rua Guilherme de Almeida;Santo Antônio;0;santo antonio;rua guilherme de almeida;-19.9485717;-43.9451686;30350-213
1240000.0;190.0;4;4.0;3;Itapoã;Rua Jornalista Waldir Lau;Itapoã;0;itapoa;rua jornalista waldir lau;-19.8387267;-43.9534756;31720-440
389000.0;86.0;2;1.0;2;Planalto;Rua José Benjamim de Castro;Planalto;0;planalto;rua jose benjamim de castro;-19.8311059;-43.9435986;31742-036
690000.0;120.0;3;2.0;2;Santa Mônica;Rua Olavo Bilac;Santa Mônica;0;santa monica;rua olavo bilac;-19.8206322;-43.9725148;31520-400
1200000.0;178.0;4;5.0;3;Liberdade;Rua Antônio Paulino de Castro;Liberdade;0;liberdade;rua antonio paulino de castro;-19.8592351;-43.9529347;31270-180
2150000.0;133.0;4;5.0;3;Funcionários;Rua Bernardo Guimarães;Funcionários;0;funcionarios;rua bernardo guimaraes;-19.9321123;-43.9283322;30112-020
750000.0;72.0;2;3.0;2;Serra;Rua Monte Alegre;Serra;0;serra;rua monte alegre;-19.9362309;-43.9239741;30110-031
360000.0;65.0;3;1.0;1;Jardim Leblon;Rua Lagoa dos Patos;Jardim Leblon;1;jardim leblon;rua lagoa dos patos;-19.8262269;-43.9867498;31540-360
405000.0;55.0;2;2.0;2;Santa Terezinha;Rua Dona Carmem;Santa Terezinha;0;santa terezinha;rua dona carmem;-19.873227;-44.0084724;31360-000
1250000.0;130.0;4;4.0;3;Dona Clara;Rua Bento Mendes Castanheira;Dona Clara;0;dona clara;rua bento mendes castanheira;-19.8603897;-43.9392591;31260-140
950000.0;116.0;4;2.0;4;Ipiranga;Rua Ubaí;Ipiranga;0;ipiranga;rua ubai;-19.8875461;-43.9321896;31160-210
1200000.0;176.0;4;1.0;2;Sion;Rua República Argentina;Sion;0;sion;rua republica argentina;-19.9547019;-43.9334068;30315-550
550000.0;124.0;3;3.0;2;Planalto;Rua Monsenhor Negromonte;Planalto;0;planalto;rua monsenhor negromonte;-19.8283409;-43.9567763;31720-300
490000.0;60.0;2;2.0;2;Itapoã;Rua Engenheiro Vicente Assunção;Itapoã;0;itapoa;rua engenheiro vicente assuncao;-19.8374414;-43.9641036;31710-100
1550000.0;106.0;3;2.0;2;Vila Paris;Rua Iraí;Vila Paris;0;vila paris;rua irai;-19.9499369;-43.9485527;30350-213
450000.0;95.0;3;1.0;1;Jardim América;Rua Lindolfo de Azevedo;Jardim América;0;jardim america;rua lindolfo de azevedo;-19.9434681;-43.9740084;30421-351
697000.0;66.0;3;2.0;2;Santa Inês;Rua Caiana;Santa Inês;0;santa ines;rua caiana;-19.8888926;-43.9066352;31080-160
1450000.0;170.0;4;3.0;1;Santo Antônio;Rua Paulo Afonso;Santo Antônio;0;santo antonio;rua paulo afonso;-19.9374625;-43.9456292;30380-002
980000.0;95.0;3;3.0;2;Buritis;Avenida Deputado Cristóvam Chiaradia;Buritis;0;buritis;avenida deputado cristovam chiaradia;-19.92083;-43.93778;30160-033
697000.0;61.0;2;2.0;2;Barro Preto;Rua dos Tupis;Barro Preto;0;barro preto;rua dos tupis;-19.9186127;-43.9513912;30190-915
1050000.0;60.0;2;3.0;2;Santo Agostinho;Rua Juiz de Fora;Santo Agostinho;0;santo agostinho;rua juiz de fora;-19.9294798;-43.9552575;30110-062
660000.0;70.0;3;2.0;2;Pampulha;Praça Santo Antônio;Pampulha;0;pampulha;praca santo antonio;-19.8548837;-43.9547799;31270-860
906000.0;63.0;2;2.0;2;Cidade Nova;Rua Doutor Júlio Otaviano Ferreira;Cidade Nova;0;cidade nova;rua doutor julio otaviano ferreira;-19.8892477;-43.9227546;31170-200
610000.0;62.0;2;2.0;2;Nova Suíssa;Rua Corcovado;Nova Suíssa;0;nova suissa;rua corcovado;-19.9402087;-43.9777962;30421-351
970000.0;88.0;3;3.0;2;Estoril;Rua Paulo Piedade Campos;Estoril;0;estoril;rua paulo piedade campos;-19.965417;-43.9647127;30493-030
570000.0;68.0;2;2.0;1;Castelo;Rua Castelo de Ajuda;Castelo;0;castelo;rua castelo de ajuda;-19.8736853;-43.9983929;31330-310
560000.0;150.0;4;2.0;1;Caiçaras;Rua Atalaia;Caiçaras;0;caicaras;rua atalaia;-19.9044017;-43.9711071;30770-400
650000.0;100.0;3;2.0;1;Vila Paris;Avenida Artur Bernardes;Vila Paris;0;vila paris;avenida artur bernardes;-19.9516028;-43.9478313;30350-213
995000.0;105.0;4;3.0;3;Jaraguá;Rua Bacupã;Jaraguá;0;jaragua;rua bacupa;-19.857266;-43.9526586;31270-860
512055.0;64.0;2;2.0;2;União;Rua Otávio Otoni;União;0;uniao;rua otavio otoni;-19.8845253;-43.9195561;31170-590
693000.0;130.0;3;3.0;2;Buritis;Rua Marco Aurélio de Miranda;Buritis;0;buritis;rua marco aurelio de miranda;-19.9754308;-43.9666948;30575-210
680000.0;66.0;3;2.0;2;Manacás;Rua Francisco Magalhães Gomes;Manacás;0;manacas;rua francisco magalhaes gomes;-19.8939738;-43.998234;30840-300
550000.0;160.0;2;3.0;2;Buritis;Rua José do Patrocínio Carneiro;Buritis;0;buritis;rua jose do patrocinio carneiro;-19.9787223;-43.9662533;30575-210
1050000.0;125.0;4;3.0;3;Itapoã;Rua Engenheiro Vicente Assunção;Itapoã;0;itapoa;rua engenheiro vicente assuncao;-19.8374414;-43.9641036;31710-100
535000.0;120.0;3;3.0;1;Santo Antônio;Rua Benjamim Flores;Santo Antônio;0;santo antonio;rua benjamim flores;-19.9484475;-43.9443745;30350-213
1340000.0;80.0;2;2.0;2;Sion;Praça Deputado Renato Azeredo;Sion;0;sion;praca deputado renato azeredo;-19.9571668;-43.9336441;30315-400
710000.0;85.0;3;3.0;2;Buritis;Avenida Professor Mário Werneck;Buritis;0;buritis;avenida professor mario werneck;-19.9758796;-43.9692291;30575-180
780000.0;55.0;2;2.0;2;Anchieta;Rua Odilon Braga;Anchieta;0;anchieta;rua odilon braga;-19.9500529;-43.9250693;30160-043
539900.0;74.0;2;2.0;1;Dom Joaquim;Rua Lauro Gomes Vidal;Outros;0;dom joaquim;rua lauro gomes vidal;-19.8751442;-43.9206595;31910-520
1197000.0;114.0;3;3.0;4;Nova Suíssa;Rua Maria Macedo;Nova Suíssa;0;nova suissa;rua maria macedo;-19.934174;-43.9725578;30421-280
1380000.0;98.0;3;2.0;2;Buritis;Rua Tito Guimarães;Buritis;0;buritis;rua tito guimaraes;-19.9682413;-43.9694068;30492-020
1040000.0;103.0;3;1.0;2;Ipiranga;Rua Conde de Monte Cristo;Ipiranga;0;ipiranga;rua conde de monte cristo;-19.8786565;-43.9314508;31160-440
1185000.0;143.0;4;2.0;2;Sion;Rua Guaratinga;Sion;0;sion;rua guaratinga;-19.956246;-43.9328597;30315-400
548071.0;56.0;2;2.0;1;Alípio de Melo;Avenida Heráclito Mourão de Miranda;Outros;0;alipio de melo;avenida heraclito mourao de miranda;-19.8902904;-44.0007213;30840-300
2050000.0;190.0;4;4.0;3;Serra;Rua Caraça;Serra;0;serra;rua caraca;-19.9428812;-43.9138144;30220-330
680000.0;95.0;3;2.0;2;Castelo;Rua Elson Nunes de Souza;Castelo;0;castelo;rua elson nunes de souza;-19.8893581;-43.9943443;30840-460
1280000.0;147.0;4;4.0;3;Palmares;Avenida Pedro Serafim Ferreira;Palmares;0;palmares;avenida pedro serafim ferreira;-19.8724163;-43.9292904;31160-540
585000.0;80.0;2;2.0;1;Serrano;Rua Shirley Regina das Chagas;Serrano;0;serrano;rua shirley regina das chagas;-19.8825927;-44.007708;31330-200
510000.0;120.0;2;2.0;1;Santa Efigênia;Rua Cônego Pinheiro;Santa Efigênia;0;santa efigenia;rua conego pinheiro;-19.92083;-43.93778;30160-033
629000.0;84.0;3;1.0;2;Ouro Preto;Rua Apucarana;Ouro Preto;0;ouro preto;rua apucarana;-19.8708528;-43.9850097;31310-490
550000.0;85.0;3;3.0;1;Sagrada Família;Rua Itajubá;Sagrada Família;0;sagrada familia;rua itajuba;-19.8945854;-43.9259692;31035-480
559000.0;147.0;3;2.0;1;Luxemburgo;Rua Doutor Juvenal dos Santos;Luxemburgo;0;luxemburgo;rua doutor juvenal dos santos;-19.9504542;-43.9570613;30380-430
700000.0;130.0;4;2.0;2;Santo Antônio;Rua Professor Aníbal Mattos;Santo Antônio;0;santo antonio;rua professor anibal mattos;-19.9480618;-43.9450072;30350-213
1380000.0;125.0;4;4.0;3;União;Rua José Gaspar de Araújo;União;0;uniao;rua jose gaspar de araujo;-19.8836916;-43.9270818;31170-230
850000.0;83.0;3;2.0;1;Anchieta;Rua Francisco Deslandes;Anchieta;0;anchieta;rua francisco deslandes;-19.9503283;-43.9286988;30310-530
750000.0;115.0;4;3.0;1;Santa Branca;Rua Montese;Santa Branca;0;santa branca;rua montese;-19.8356951;-43.9657465;31565-180
560000.0;80.0;3;1.0;2;Estoril;Rua Eugênio Vidigal Amaro;Estoril;0;estoril;rua eugenio vidigal amaro;-19.92083;-43.93778;30160-033
2220000.0;113.0;3;3.0;2;Lourdes;Rua dos Aimorés;Lourdes;0;lourdes;rua dos aimores;-19.9280779;-43.939501;30160-907
800000.0;90.0;3;2.0;2;Sion;Praça Miguel Chquiloff;Sion;0;sion;praca miguel chquiloff;-19.92083;-43.93778;30160-033
1280000.0;128.0;4;4.0;3;Buritis;Rua José Hemetério Andrade;Buritis;0;buritis;rua jose hemeterio andrade;-19.9767283;-43.9638434;30575-210
1240000.0;97.0;3;3.0;3;Buritis;Rua Maria Heilbuth Surette;Buritis;0;buritis;rua maria heilbuth surette;-19.9736697;-43.9734272;30575-740
403000.0;53.0;2;1.0;1;Estoril;Rua Deputado Dênio Moreira;Estoril;0;estoril;rua deputado denio moreira;-19.9579764;-43.9682758;30494-225
250000.0;65.0;3;1.0;0;Coqueiros;Rua Capanema;Outros;0;coqueiros;rua capanema;-19.9023113;-44.02413;32115-160
1047000.0;93.0;2;2.0;2;Pampulha;Rua dos Aeroviários;Pampulha;0;pampulha;rua dos aeroviarios;-19.857863;-43.9568898;31270-700
799000.0;160.0;3;3.0;2;Planalto;Rua Padre Willian Silva;Planalto;0;planalto;rua padre willian silva;-19.8278029;-43.9558976;31720-300
1100000.0;126.0;3;3.0;3;Cidade Nova;Rua Doutor Benjamim Moss;Cidade Nova;0;cidade nova;rua doutor benjamim moss;-19.92083;-43.93778;30160-033
800000.0;97.0;3;2.0;2;São Lucas;Rua Monte Alegre;São Lucas;0;sao lucas;rua monte alegre;-19.9319281;-43.9202507;30220-000
700000.0;60.0;2;1.0;2;Santo Antônio;Rua Mangabeira;Santo Antônio;0;santo antonio;rua mangabeira;-19.9458676;-43.9465231;30350-180
355000.0;64.0;2;2.0;1;Santa Efigênia;Rua Domingos Sávio;Santa Efigênia;0;santa efigenia;rua domingos savio;-19.9236613;-43.9122596;30260-260
1200000.0;131.0;4;3.0;2;Sion;Rua da Groenlândia;Sion;0;sion;rua da groenlandia;-19.92083;-43.93778;30160-033
320000.0;56.0;2;1.0;1;Piratininga;Rua Norma;Piratininga;0;piratininga;rua norma;-19.8159557;-43.992034;31573-506
1700000.0;256.0;4;3.0;2;Savassi;Rua Antônio de Albuquerque;Savassi;0;savassi;rua antonio de albuquerque;-19.9372065;-43.9394673;30112-011
370000.0;64.0;3;1.0;1;Liberdade;Rua João Fernandes;Liberdade;0;liberdade;rua joao fernandes;-19.8610659;-43.9571715;31270-700
499000.0;52.0;2;1.0;2;Santa Mônica;Rua Geralda Cirino Flor de Maio;Santa Mônica;0;santa monica;rua geralda cirino flor de maio;-19.8294985;-43.970102;31565-180
620000.0;75.0;3;2.0;2;Sagrada Família;Rua São Roque;Sagrada Família;0;sagrada familia;rua sao roque;-19.8988684;-43.9191739;31035-460
859000.0;130.0;3;3.0;2;Castelo;Rua Castelo de São Jorge;Castelo;0;castelo;rua castelo de sao jorge;-19.8834971;-44.0009073;31330-290
592000.0;68.0;3;2.0;2;Santa Efigênia;Rua Abrolhos;Santa Efigênia;0;santa efigenia;rua abrolhos;-19.9216481;-43.9138113;30260-100
810000.0;75.0;2;2.0;2;Buritis;Rua Ignácio Alves Martins;Buritis;0;buritis;rua ignacio alves martins;-19.9771144;-43.9779165;30575-839
290000.0;60.0;2;1.0;1;Guarani;Rua Cipó;Outros;0;guarani;rua cipo;-19.8447442;-43.9296004;31741-424
1220000.0;150.0;4;3.0;3;Vila Paris;Rua Batista de Figueiredo;Vila Paris;0;vila paris;rua batista de figueiredo;-19.92083;-43.93778;30160-033
949900.0;104.0;3;3.0;2;Santa Rosa;Rua Irmã Eufêmia;Santa Rosa;0;santa rosa;rua irma eufemia;-19.8616658;-43.9473479;31260-000
2353597.0;121.0;3;3.0;2;Funcionários;Rua Piauí;Funcionários;0;funcionarios;rua piaui;-19.9300033;-43.9264132;30130-090
4200000.0;200.0;4;4.0;4;Lourdes;Rua Felipe dos Santos;Lourdes;0;lourdes;rua felipe dos santos;-19.9342519;-43.946334;30170-090
1420000.0;126.0;4;2.0;3;Buritis;Avenida José de Oliveira Vaz;Buritis;0;buritis;avenida jose de oliveira vaz;-19.9820245;-43.9777458;30575-855
550000.0;130.0;3;3.0;1;Cruzeiro;Rua Pium-I;Cruzeiro;0;cruzeiro;rua pium-i;-19.9426434;-43.9299187;30310-560
1089000.0;86.0;3;2.0;2;Santo Antônio;Rua Carlos Gomes;Santo Antônio;0;santo antonio;rua carlos gomes;-19.9431332;-43.945956;30350-180
730000.0;75.0;3;2.0;2;Ouro Preto;Rua Professor Domício Murta;Ouro Preto;0;ouro preto;rua professor domicio murta;-19.8740079;-43.9894684;31340-000
780000.0;115.0;3;2.0;3;Santa Branca;Rua das Canárias;Santa Branca;0;santa branca;rua das canarias;-19.8413947;-43.9699155;31565-050
480000.0;105.0;2;1.0;1;Santa Terezinha;Rua Conceição da Aparecida;Santa Terezinha;0;santa terezinha;rua conceicao da aparecida;-19.8724283;-44.0005325;31360-000
270000.0;57.0;3;1.0;1;Santa Cruz;Rua José Cleto;Santa Cruz;0;santa cruz;rua jose cleto;-19.8765417;-43.931516;31160-440
1600000.0;198.0;4;1.0;3;Serra;Rua do Ouro;Serra;0;serra;rua do ouro;-19.9403611;-43.9200245;30220-060
395000.0;62.0;2;1.0;1;Havaí;Rua Francisco Gomes da Rocha;Havaí;0;havai;rua francisco gomes da rocha;-19.9640752;-43.974077;30570-360
520000.0;132.0;2;1.0;1;Candelária;Rua Manoel Sampaio;Candelária;0;candelaria;rua manoel sampaio;-19.8128646;-43.9771404;31520-400
480000.0;120.0;3;2.0;2;Fernão Dias;Rua Doresópolis;Fernão Dias;0;fernao dias;rua doresopolis;-19.8718521;-43.9156545;31910-000
425000.0;77.0;2;1.0;2;Fernão Dias;Rua Paulista;Fernão Dias;0;fernao dias;rua paulista;-19.8718521;-43.9156545;31910-000
851000.0;118.0;3;2.0;2;Palmares;Rua Manoel Venâncio Martins;Palmares;0;palmares;rua manoel venancio martins;-19.8748133;-43.9329898;31160-560
460000.0;48.0;2;1.0;1;Santa Branca;Rua Gil Vicente;Santa Branca;0;santa branca;rua gil vicente;-19.8341833;-43.9702101;31565-180
550000.0;70.0;3;2.0;1;Heliópolis;Rua Francisco Terra;Heliópolis;0;heliopolis;rua francisco terra;-19.8437146;-43.9372515;31741-555
740000.0;75.0;3;2.0;3;Nova Suíssa;Rua Maria Macedo;Nova Suíssa;0;nova suissa;rua maria macedo;-19.934174;-43.9725578;30421-280
620000.0;87.0;3;2.0;2;Brasil Industrial;Rua F;Outros;0;brasil industrial;rua f;-19.9982443;-44.0163251;30626-110
1866200.0;116.0;3;4.0;2;Santa Lúcia;Rua Arrudas;Santa Lúcia;0;santa lucia;rua arrudas;-19.9652317;-43.9481595;30350-577
850000.0;120.0;4;2.0;2;Pampulha;Rua dos Aeroviários;Pampulha;0;pampulha;rua dos aeroviarios;-19.857863;-43.9568898;31270-700
410000.0;80.0;3;2.0;1;Santa Mônica;Rua Otília Cândida Nascimento;Santa Mônica;0;santa monica;rua otilia candida nascimento;-19.8264136;-43.9775249;31525-410
580000.0;111.0;3;3.0;2;Ouro Preto;Rua Adma Saba Paiva;Ouro Preto;0;ouro preto;rua adma saba paiva;-19.872816;-43.9792721;31310-360
1495000.0;85.0;3;2.0;2;Cruzeiro;Rua Pium-I;Cruzeiro;0;cruzeiro;rua pium-i;-19.9426434;-43.9299187;30310-560
750000.0;85.0;3;2.0;1;Sion;Rua Grão Mogol;Sion;0;sion;rua grao mogol;-19.9510527;-43.9349668;30315-600
1380000.0;126.0;4;3.0;3;Buritis;Avenida Senador José Augusto;Buritis;0;buritis;avenida senador jose augusto;-19.9822816;-43.9800392;30575-847
700000.0;70.0;2;1.0;1;Buritis;Rua Eli Seabra Filho;Buritis;0;buritis;rua eli seabra filho;-19.9756214;-43.9751097;30575-740
1350000.0;135.0;4;3.0;3;Serra;Rua Joanésia;Serra;0;serra;rua joanesia;-19.9380831;-43.9187452;30240-130
819000.0;64.0;1;2.0;2;Buritis;Avenida José de Oliveira Vaz;Buritis;0;buritis;avenida jose de oliveira vaz;-19.9820245;-43.9777458;30575-855
787000.0;58.0;2;3.0;2;Santo Antônio;Rua Paulo Afonso;Santo Antônio;0;santo antonio;rua paulo afonso;-19.9374625;-43.9456292;30380-002
1150000.0;70.0;4;1.0;2;Horto Florestal;Rua Artur Alvim;Outros;0;horto florestal;rua artur alvim;-19.9046059;-43.9151923;31035-060
630000.0;100.0;3;2.0;2;Planalto;Rua Professor José Esteves;Planalto;0;planalto;rua professor jose esteves;-19.833184;-43.9452194;31742-036
380000.0;53.0;2;1.0;1;Castelo;Rua Castelo da Beira;Castelo;0;castelo;rua castelo da beira;-19.8757047;-43.9974135;31330-310
699000.0;117.0;4;1.0;2;Rio Branco;Rua Clélia;Rio Branco;0;rio branco;rua clelia;-19.8217005;-43.9799731;31525-410
1590000.0;140.0;4;2.0;2;Serra;Rua Professor Estevão Pinto;Serra;0;serra;rua professor estevao pinto;-19.9379964;-43.9227878;30220-060
635000.0;90.0;3;3.0;1;Santo Antônio;Rua Deputado Álvaro Sales;Santo Antônio;0;santo antonio;rua deputado alvaro sales;-19.9490157;-43.9461962;30350-213
995000.0;100.0;3;3.0;2;Ouro Preto;Rua Desembargador Paulo Mota;Ouro Preto;0;ouro preto;rua desembargador paulo mota;-19.8844311;-43.9827441;31320-262
1280000.0;150.0;4;2.0;3;Sion;Rua Patagônia;Sion;0;sion;rua patagonia;-19.9591387;-43.9349669;30320-380
1388000.0;87.0;3;3.0;2;São Lucas;Rua Manaus;São Lucas;0;sao lucas;rua manaus;-19.9276087;-43.9216135;30150-270
779000.0;114.0;4;2.0;3;União;Rua Artur de Sá;União;0;uniao;rua artur de sa;-19.8770936;-43.924736;31920-012
1290000.0;130.0;4;4.0;3;Santa Rosa;Rua Dom Rodrigo;Santa Rosa;0;santa rosa;rua dom rodrigo;-19.863154;-43.9480007;31270-030
1490000.0;160.0;3;4.0;3;Santa Cruz;Rua Coronel Jairo Pereira;Santa Cruz;0;santa cruz;rua coronel jairo pereira;-19.8764358;-43.9333672;31160-560
1300000.0;59.0;2;2.0;2;Santo Agostinho;Rua dos Aimorés;Santo Agostinho;0;santo agostinho;rua dos aimores;-19.9261033;-43.947482;30170-111
1400000.0;140.0;3;2.0;2;Santa Rosa;Rua Desembargador Viotti de Magalhães;Santa Rosa;0;santa rosa;rua desembargador viotti de magalhaes;-19.8632071;-43.9452469;31260-000
1090000.0;117.0;4;3.0;3;Buritis;Rua Professora Bartira Mourão;Buritis;0;buritis;rua professora bartira mourao;-19.9691788;-43.9679532;30492-020
910000.0;110.0;3;2.0;2;Santo Antônio;Rua Pitangueiras;Santo Antônio;0;santo antonio;rua pitangueiras;-19.9466001;-43.9458187;30350-213
620000.0;78.0;3;2.0;2;Sagrada Família;Rua São Roque;Sagrada Família;0;sagrada familia;rua sao roque;-19.8988684;-43.9191739;31035-460
1150000.0;120.0;3;3.0;2;Castelo;Rua Castelo da Feira;Castelo;0;castelo;rua castelo da feira;-19.8826449;-43.9963052;31330-000
225000.0;48.0;2;1.0;1;Mantiqueira;Rua das Chácaras;Outros;0;mantiqueira;rua das chacaras;-19.796511;-43.9895198;31660-320
660000.0;88.0;3;2.0;2;Padre Eustáquio;Rua Dona Noemi;Padre Eustáquio;0;padre eustaquio;rua dona noemi;-19.92083;-43.93778;30160-033
1100000.0;240.0;4;4.0;4;Serrano;Rua Rosalina Calegário;Serrano;0;serrano;rua rosalina calegario;-19.8810499;-44.0077946;31330-200
870990.0;66.0;3;2.0;2;Serra;Rua Pouso Alto;Serra;0;serra;rua pouso alto;-19.9333801;-43.9207114;30240-130
640000.0;72.0;3;2.0;2;Paquetá;Rua Gustavo Ladeira;Paquetá;0;paqueta;rua gustavo ladeira;-19.8798567;-43.9917617;31330-572
1400000.0;250.0;4;3.0;3;Santo Antônio;Rua Joaquim Murtinho;Santo Antônio;0;santo antonio;rua joaquim murtinho;-19.9386023;-43.9449143;30160-038
975000.0;115.0;3;2.0;2;Liberdade;Rua Vital Brasil;Liberdade;0;liberdade;rua vital brasil;-19.8613248;-43.9545847;31270-250
520000.0;48.0;2;2.0;1;Palmeiras;Rua Senhora do Porto;Palmeiras;0;palmeiras;rua senhora do porto;-19.9722576;-43.9834489;30575-730
2365000.0;145.0;3;3.0;4;Gutierrez;Rua Oscar Trompowsky;Gutierrez;0;gutierrez;rua oscar trompowsky;-19.9369049;-43.9614399;30430-180
380000.0;140.0;3;2.0;0;Centro;Avenida Paraná;Centro;0;centro;avenida parana;-19.9176696;-43.9418187;30170-120
880000.0;156.0;4;3.0;2;Jaraguá;Rua Garumã;Jaraguá;0;jaragua;rua garuma;-19.8578028;-43.9530134;31270-180
569190.0;55.0;2;2.0;1;Barro Preto;Rua dos Tupis;Barro Preto;0;barro preto;rua dos tupis;-19.9186127;-43.9513912;30190-915
990000.0;185.0;3;3.0;2;Palmares;Rua Antônio Peregrino Nascimento;Palmares;0;palmares;rua antonio peregrino nascimento;-19.8744462;-43.935074;31155-290
1045000.0;104.0;4;3.0;3;Jaraguá;Rua Bacupã;Jaraguá;0;jaragua;rua bacupa;-19.857266;-43.9526586;31270-860
1180000.0;100.0;3;3.0;2;Funcionários;Rua Rio Grande do Norte;Funcionários;0;funcionarios;rua rio grande do norte;-19.9283695;-43.9301026;30130-131
780000.0;95.0;3;2.0;2;Coração de Jesus;Rua Donato da Fonseca;Coração de Jesus;0;coracao de jesus;rua donato da fonseca;-19.9445901;-43.9525868;30380-210
2320000.0;107.0;3;4.0;3;Savassi;Rua Antônio de Albuquerque;Savassi;0;savassi;rua antonio de albuquerque;-19.9372065;-43.9394673;30112-011
1035000.0;140.0;4;4.0;3;Buritis;Rua Lauro Ferreira;Buritis;0;buritis;rua lauro ferreira;-19.9692604;-43.970022;30492-025
730000.0;120.0;3;3.0;2;Buritis;Rua Professora Bartira Mourão;Buritis;0;buritis;rua professora bartira mourao;-19.9691788;-43.9679532;30492-020
620000.0;135.0;3;2.0;1;Floresta;Avenida do Contorno;Floresta;0;floresta;avenida do contorno;-19.9180205;-43.9262001;31010-070
798000.0;90.0;3;3.0;2;Castelo;Rua Doutor Rubens Guimarães;Castelo;0;castelo;rua doutor rubens guimaraes;-19.8885863;-43.9977043;30840-470
937000.0;162.0;3;2.0;4;Santa Amélia;Rua dos Expedicionários;Santa Amélia;0;santa amelia;rua dos expedicionarios;-19.8452925;-43.9805798;31555-100
1186000.0;136.0;4;2.0;2;São Pedro;Rua Tupaciguara;São Pedro;0;sao pedro;rua tupaciguara;-19.9479756;-43.9390956;30330-012
639000.0;104.0;3;2.0;2;Vila Cloris;Rua das Codornas;Vila Cloris;0;vila cloris;rua das codornas;-19.8272394;-43.9500564;31744-118
895000.0;71.0;3;2.0;3;Santo Antônio;Rua Abre Campo;Santo Antônio;0;santo antonio;rua abre campo;-19.9469641;-43.9438091;30350-213
1998000.0;106.0;3;4.0;2;Savassi;Rua Antônio de Albuquerque;Savassi;0;savassi;rua antonio de albuquerque;-19.9372065;-43.9394673;30112-011
1650000.0;316.0;4;4.0;2;Santo Antônio;Avenida Prudente de Morais;Santo Antônio;0;santo antonio;avenida prudente de morais;-19.9473795;-43.9484358;30380-728
1500000.0;190.0;4;2.0;2;Funcionários;Rua dos Aimorés;Funcionários;0;funcionarios;rua dos aimores;-19.9294534;-43.9337935;30140-080
870000.0;64.0;2;2.0;2;Buritis;Rua Deputado Fábio Vasconcelos;Buritis;0;buritis;rua deputado fabio vasconcelos;-19.9731041;-43.9764617;30575-833
670000.0;159.0;4;2.0;2;Santo Antônio;Rua Guilherme de Almeida;Santo Antônio;0;santo antonio;rua guilherme de almeida;-19.9485717;-43.9451686;30350-213
580000.0;120.0;3;1.0;1;Gutierrez;Avenida Afonso XIII;Gutierrez;0;gutierrez;avenida afonso xiii;-19.92083;-43.93778;30160-033
780000.0;148.0;4;3.0;2;Ipiranga;Avenida Bernardo de Vasconcelos;Ipiranga;0;ipiranga;avenida bernardo de vasconcelos;-19.8757884;-43.9293954;31160-540
670000.0;67.0;2;2.0;2;Serra;Rua Senador Pompéo;Serra;0;serra;rua senador pompeo;-19.9362523;-43.9198553;30240-130
580000.0;257.0;3;2.0;1;Renascença;Rua Javari;Renascença;0;renascenca;rua javari;-19.8931535;-43.9429176;31130-550
680000.0;98.0;3;3.0;2;Palmares;Rua Antônio Peregrino Nascimento;Palmares;0;palmares;rua antonio peregrino nascimento;-19.8744462;-43.935074;31155-290
995000.0;250.0;3;3.0;1;Vila Paris;Rua Visconde do Rio das Velhas;Vila Paris;0;vila paris;rua visconde do rio das velhas;-19.9518394;-43.9488525;30350-213
1276310.0;67.0;2;3.0;2;Funcionários;Rua dos Aimorés;Funcionários;0;funcionarios;rua dos aimores;-19.9294534;-43.9337935;30140-080
780000.0;113.0;3;3.0;2;Gutierrez;Rua Cachoeira de Minas;Gutierrez;0;gutierrez;rua cachoeira de minas;-19.9459091;-43.9592863;30440-470
500000.0;55.0;2;2.0;1;Castelo;Avenida Miguel Perrela;Castelo;0;castelo;avenida miguel perrela;-19.8793334;-43.9973791;31330-310
1350000.0;147.0;4;3.0;3;Ouro Preto;Rua Randolfo Trindade;Ouro Preto;0;ouro preto;rua randolfo trindade;-19.8865051;-43.9821192;31320-262
530000.0;142.0;3;2.0;0;Barro Preto;Rua Rio Grande do Sul;Barro Preto;0;barro preto;rua rio grande do sul;-19.9230258;-43.9465523;30180-107
540000.0;60.0;2;2.0;1;Santo Antônio;Rua Nunes Vieira;Santo Antônio;0;santo antonio;rua nunes vieira;-19.9423861;-43.9475132;30350-143
800000.0;157.0;3;3.0;2;Manacás;Rua Leopoldo Campos Nunes;Manacás;0;manacas;rua leopoldo campos nunes;-19.8981868;-43.9964094;30840-492
485000.0;60.0;2;1.0;1;Colégio Batista;Rua Itabira;Colégio Batista;0;colegio batista;rua itabira;-19.9054832;-43.9421879;31210-790
700000.0;130.0;4;3.0;2;Santo Antônio;Rua Professor Aníbal Mattos;Santo Antônio;0;santo antonio;rua professor anibal mattos;-19.9480618;-43.9450072;30350-213
520000.0;98.0;3;2.0;1;Gutierrez;Rua Martim Francisco;Gutierrez;0;gutierrez;rua martim francisco;-19.9386869;-43.9599334;30441-028
780000.0;105.0;3;3.0;2;Colégio Batista;Rua Guanhães;Colégio Batista;0;colegio batista;rua guanhaes;-19.9070824;-43.9378181;31110-150
840000.0;115.0;4;2.0;4;Buritis;Rua Maria Heilbuth Surette;Buritis;0;buritis;rua maria heilbuth surette;-19.9736697;-43.9734272;30575-740
425000.0;48.0;2;2.0;1;Palmeiras;Rua Senhora do Porto;Palmeiras;0;palmeiras;rua senhora do porto;-19.9722576;-43.9834489;30575-730
559900.0;54.0;2;2.0;1;Dom Joaquim;Rua Lauro Gomes Vidal;Outros;0;dom joaquim;rua lauro gomes vidal;-19.8751442;-43.9206595;31910-520
550000.0;90.0;3;3.0;2;Santo Antônio;Rua Deputado Álvaro Sales;Santo Antônio;0;santo antonio;rua deputado alvaro sales;-19.9490157;-43.9461962;30350-213
855000.0;180.0;3;3.0;2;Santa Mônica;Rua Olavo Bilac;Santa Mônica;0;santa monica;rua olavo bilac;-19.8206322;-43.9725148;31520-400
950000.0;110.0;4;2.0;1;Buritis;Rua Ernani Agricola;Buritis;0;buritis;rua ernani agricola;-19.92083;-43.93778;30160-033
789000.0;84.0;4;4.0;2;Palmares;Rua Nestor Soares de Melo;Palmares;0;palmares;rua nestor soares de melo;-19.8738814;-43.929676;31160-540
780000.0;102.0;3;2.0;2;Santo Antônio;Rua Abre Campo;Santo Antônio;0;santo antonio;rua abre campo;-19.9469641;-43.9438091;30350-213
300000.0;70.0;3;1.0;1;Alípio de Melo;Rua Leonil Prata;Outros;0;alipio de melo;rua leonil prata;-19.8958476;-44.0055577;30830-610
540000.0;90.0;3;2.0;1;Coração de Jesus;Rua Donato da Fonseca;Coração de Jesus;0;coracao de jesus;rua donato da fonseca;-19.9445901;-43.9525868;30380-210
770000.0;127.0;4;2.0;2;Coração de Jesus;Avenida Prudente de Morais;Coração de Jesus;0;coracao de jesus;avenida prudente de morais;-19.942474;-43.9491118;30350-143
999000.0;126.0;4;3.0;3;Buritis;Rua Jornalista Guilherme Apgáua;Buritis;0;buritis;rua jornalista guilherme apgaua;-19.9775111;-43.9730245;30575-815
450000.0;100.0;3;1.0;1;São João Batista;Praça Cultura Racional;São João Batista;0;sao joao batista;praca cultura racional;-19.8163037;-43.9681322;31520-400
799000.0;183.0;2;2.0;2;Itapoã;Rua Professor Hélio Viana;Itapoã;0;itapoa;rua professor helio viana;-19.8412022;-43.9604937;31710-050
1350000.0;100.0;3;3.0;2;Sion;Rua da Groenlândia;Sion;0;sion;rua da groenlandia;-19.92083;-43.93778;30160-033
930000.0;68.0;2;3.0;2;Anchieta;Rua Cassiporé;Anchieta;0;anchieta;rua cassipore;-19.9504579;-43.9275752;30310-530
599000.0;68.0;2;2.0;3;União;Rua Artur de Sá;União;0;uniao;rua artur de sa;-19.8770936;-43.924736;31920-012
500000.0;105.0;2;2.0;2;Santa Terezinha;Rua Dona Carmem;Santa Terezinha;0;santa terezinha;rua dona carmem;-19.873227;-44.0084724;31360-000
1512778.0;91.0;3;2.0;2;Sion;Rua Valparaíso;Sion;0;sion;rua valparaiso;-19.9492306;-43.935158;30315-570
470000.0;90.0;3;2.0;1;Santo Antônio;Rua Professor Aníbal Mattos;Santo Antônio;0;santo antonio;rua professor anibal mattos;-19.9480618;-43.9450072;30350-213
850000.0;120.0;4;2.0;2;Santo Antônio;Rua Matipó;Santo Antônio;0;santo antonio;rua matipo;-19.9474174;-43.9453612;30350-213
645000.0;105.0;4;2.0;2;Santa Lúcia;Rua Canopus;Santa Lúcia;0;santa lucia;rua canopus;-19.95462;-43.9488943;30316-110
370000.0;57.0;2;1.0;1;Planalto;Rua Francisco Augusto Rocha;Planalto;0;planalto;rua francisco augusto rocha;-19.8251622;-43.9544154;31744-144
830000.0;90.0;4;2.0;3;Dona Clara;Rua Bento Mendes Castanheira;Dona Clara;0;dona clara;rua bento mendes castanheira;-19.8603897;-43.9392591;31260-140
660000.0;190.0;4;3.0;1;Carlos Prates;Rua Cambuquira;Carlos Prates;0;carlos prates;rua cambuquira;-19.9106101;-43.9586983;30710-350
550000.0;80.0;3;2.0;2;Buritis;Rua Laura Soares Carneiro;Buritis;0;buritis;rua laura soares carneiro;-19.9775684;-43.9652495;30575-210
1200000.0;184.0;4;4.0;4;Itapoã;Rua José Oscar Barreira;Itapoã;0;itapoa;rua jose oscar barreira;-19.8386837;-43.9559214;31720-440
1211400.0;73.0;2;2.0;2;Santo Agostinho;Rua dos Aimorés;Santo Agostinho;0;santo agostinho;rua dos aimores;-19.9261033;-43.947482;30170-111
737100.0;83.0;3;2.0;2;Palmares;Avenida Pedro Serafim Ferreira;Palmares;0;palmares;avenida pedro serafim ferreira;-19.8724163;-43.9292904;31160-540
1360000.0;177.0;3;3.0;3;Castelo;Rua Ministro Jorge Vargas;Castelo;0;castelo;rua ministro jorge vargas;-19.8881161;-44.0000274;31330-130
900000.0;96.0;3;2.0;2;Palmares;Rua Carmelita Faria Garofalo;Palmares;0;palmares;rua carmelita faria garofalo;-19.8744461;-43.9359248;31155-290
1380305.0;91.0;3;3.0;2;Serra;Rua Serranos;Serra;0;serra;rua serranos;-19.9437641;-43.9166399;30210-590
398000.0;65.0;2;1.0;2;Santa Amélia;Rua das Canárias;Santa Amélia;0;santa amelia;rua das canarias;-19.8448585;-43.9768387;31555-100
2330000.0;140.0;4;5.0;4;Santo Agostinho;Rua Araguari;Santo Agostinho;0;santo agostinho;rua araguari;-19.9304115;-43.9513723;30170-008
1100000.0;156.0;3;3.0;3;Sagrada Família;Rua Santa Bárbara;Sagrada Família;0;sagrada familia;rua santa barbara;-19.908659;-43.9263292;31030-010
1400000.0;130.0;3;2.0;2;Castelo;Rua Doutor Sylvio Menicucci;Castelo;0;castelo;rua doutor sylvio menicucci;-19.8876779;-43.9997342;31330-130
653604.0;56.0;2;2.0;0;Centro;Rua dos Carijós;Centro;0;centro;rua dos carijos;-19.9196856;-43.9363299;30160-015
1451000.0;112.0;3;1.0;3;Buritis;Rua Rubens Caporali Ribeiro;Buritis;0;buritis;rua rubens caporali ribeiro;-19.9813042;-43.9764901;30575-855
1400000.0;95.0;3;2.0;2;Lourdes;Rua Alvarenga Peixoto;Lourdes;0;lourdes;rua alvarenga peixoto;-19.9308588;-43.944;30180-120
760000.0;98.0;3;1.0;2;Liberdade;Rua Vital Brasil;Liberdade;0;liberdade;rua vital brasil;-19.8613248;-43.9545847;31270-250
499000.0;140.0;3;3.0;1;Vila Cloris;Praça Bico-de-lacre;Vila Cloris;0;vila cloris;praca bico-de-lacre;-19.827121;-43.9490285;31744-118
3300000.0;142.0;3;4.0;3;Prado;Rua Turquesa;Prado;0;prado;rua turquesa;-19.9272193;-43.9630253;30411-191
1450000.0;126.0;4;3.0;3;Serra;Rua Capelinha;Serra;0;serra;rua capelinha;-19.9407465;-43.9156679;30220-330
739000.0;80.0;3;2.0;2;Ouro Preto;Rua Deputado André de Almeida;Ouro Preto;0;ouro preto;rua deputado andre de almeida;-19.8749707;-43.9918415;31340-000
750000.0;100.0;3;3.0;1;Cruzeiro;Rua Mestre Lucas;Cruzeiro;0;cruzeiro;rua mestre lucas;-19.9446965;-43.9241805;30310-150
1580000.0;220.0;4;3.0;3;Liberdade;Rua Vital Brasil;Liberdade;0;liberdade;rua vital brasil;-19.8613248;-43.9545847;31270-250
619000.0;126.0;3;3.0;1;Santo Antônio;Rua Mar de Espanha;Santo Antônio;0;santo antonio;rua mar de espanha;-19.946549;-43.9435472;30330-240
849600.0;115.0;4;2.0;2;Cruzeiro;Rua Alfenas;Cruzeiro;0;cruzeiro;rua alfenas;-19.9452679;-43.9234932;30310-150
1269000.0;160.0;2;3.0;3;Pampulha;Rua dos Aeroviários;Pampulha;0;pampulha;rua dos aeroviarios;-19.857863;-43.9568898;31270-700
455000.0;100.0;2;1.0;1;Santa Amélia;Rua Pioneiros da Paz;Santa Amélia;0;santa amelia;rua pioneiros da paz;-19.8389187;-43.9793079;31555-100
1200000.0;95.0;2;3.0;2;Santo Agostinho;Rua dos Aimorés;Santo Agostinho;0;santo agostinho;rua dos aimores;-19.9261033;-43.947482;30170-111
730000.0;85.0;3;2.0;3;Buritis;Rua Maria Heilbuth Surette;Buritis;0;buritis;rua maria heilbuth surette;-19.9736697;-43.9734272;30575-740
850000.0;65.0;2;2.0;2;Santo Antônio;Rua Teixeira de Freitas;Santo Antônio;0;santo antonio;rua teixeira de freitas;-19.9476458;-43.947368;30350-213
640000.0;60.0;2;2.0;2;Buritis;Rua Tereza Mota Valadares;Buritis;0;buritis;rua tereza mota valadares;-19.9740666;-43.9720029;30575-180
320000.0;64.0;2;1.0;1;Copacabana;Rua Castro Alves;Copacabana;0;copacabana;rua castro alves;-19.8346925;-43.9883261;31540-360
470000.0;59.0;2;2.0;2;Santa Mônica;Rua do Carmelo;Santa Mônica;0;santa monica;rua do carmelo;-19.8307541;-43.9700416;31565-180
660000.0;99.0;3;2.0;2;Castelo;Rua Romualdo Lopes Cançado;Castelo;0;castelo;rua romualdo lopes cancado;-19.8881972;-43.996875;30840-470
1320000.0;107.0;3;3.0;3;Buritis;Rua Engenheiro Alberto Pontes;Buritis;0;buritis;rua engenheiro alberto pontes;-19.9688623;-43.9668794;30492-020
